stop_id,stop_name,stop_lat,stop_lon,zone_id,stop_code,location_type,parent_station,wheelchair_boarding,intersection_code,stop_place,reference_place,stop_name_short
10374,Gilman Dr & Myers Dr,32.876949,-117.235533,,10374,0,,1,F-E/B,gilmye,,Gilman&Myers
10391,La Jolla Village Dr & Lebon Dr,32.870592,-117.223248,,10391,0,,1,F-E/B,,,LJ Vlge&Lebon
10400,La Jolla Village Dr & Regents Rd,32.871465,-117.217861,,10400,0,,1,F-E/B,lajreE,,LJ Vlge&Rgnts
10772,Gilman Dr & Myers Dr,32.877183,-117.235829,,10772,0,,1,N-W/B,gilmye,,Gilman&Myers
10793,La Jolla Village Dr & Regents Rd,32.871503,-117.218669,,10793,0,,1,N-W/B,lajreW,,LJ Vlge&Rgnts
11151,Nobel Dr & Lebon Dr,32.868525,-117.225289,,11151,0,,1,F-W/B,nobleb,,Nobel&Lebon
11538,N Torrey Pines Rd & Torrey Pines Scenic Dr,32.887475,-117.243837,,11538,0,,1,F-S/B,,,N Try Pines&Try Pines Scenic
11539,N Torrey Pines Rd & Torrey Pines Golf Course,32.906751,-117.243990,,11539,0,,1,F-S/B,,,N Try Pines & Try Pines Golf Course
11541,N Torrey Pines Rd & Science Park Rd,32.901424,-117.242815,,11541,0,,1,F-S/B,,,N Try Pines&Science Park
11548,Gilman Dr & Eucalyptus Grove Ln,32.875781,-117.239210,,11548,0,,1,F-S/B,schola,,Gilman&Eucalyptus Grove
11875,N Torrey Pines Rd & Almahurst Row,32.880465,-117.244028,,11875,0,,2,F-S/B,,,N Try Pines&Almahurst Row
11876,N Torrey Pines Rd & La Jolla Shores Dr,32.874901,-117.243796,,11876,0,,1,F-S/B,torlaj,,N Try Pines&LJ Shores
11877,N Torrey Pines Rd & Salk Institute Rd,32.885786,-117.243958,,11877,0,,1,F-S/B,,,N Try Pines&Salk Institute
11882,N Torrey Pines Rd & Scripps Clinic Drwy,32.894078,-117.241260,,11882,0,,2,F-S/B,scripp,,N Try Pines&Scripps Clinic
11885,N Torrey Pines Rd & Genesee Av,32.891359,-117.241405,,11885,0,,2,F-S/B,ntrgen,,N Try Pines&Gnsee
11923,La Jolla Village Dr & Genesee Av,32.872645,-117.214513,,11923,0,,1,F-W/B,ljgenW,,LJ Vlge&Gnsee
12310,N Torrey Pines Rd & La Jolla Shores Dr,32.874579,-117.243543,,12310,0,,1,N-N/B,torlaj,,N Try Pines&LJ Shores
12311,N Torrey Pines Rd & Torrey Pines Scenic Dr,32.886534,-117.243654,,12311,0,,0,N-N/B,,,N Try Pines&Try Pines Scenic
12316,N Torrey Pines Rd & UCSD Northpoint Drwy,32.889558,-117.242483,,12316,0,,0,F-N/B,,,N Try Pines & UCSD Northpoint
12320,Gilman Dr & Eucalyptus Grove Ln,32.875266,-117.238755,,12320,0,,1,N-N/B,schola,,Gilman&Eucalyptus Grove
12631,N Torrey Pines Rd & Muir College Dr,32.881350,-117.243690,,12631,0,,0,F-N/B,,,N Try Pines&Muir Coll
12634,N Torrey Pines Rd & Revelle College Dr,32.871606,-117.243423,,12634,0,,1,F-N/B,,,N Try Pines&Revelle Coll
12639,N Torrey Pines Rd & Scripps Clinic Drwy,32.895275,-117.241110,,12639,0,,0,F-N/B,scripp,,N Try Pines&Scripps Clinic
13024,Nobel Dr & La Jolla Village Square Drwy,32.867766,-117.231688,,13024,0,,1,N-E/B,noblaj,,Nobel&LJ Vlge Square
13058,Nobel Dr & La Jolla Village Square Drwy,32.868011,-117.231658,,13058,0,,1,F-W/B,noblaj,,Nobel&LJ Vlge Square
13141,N Torrey Pines Rd & John J Hopkins Dr,32.898471,-117.241820,,13141,0,,0,N-N/B,scripN,,N Try Pines & John J Hopkins
13171,Genesee Av & La Jolla Village Dr,32.872043,-117.214206,,13171,0,,1,F-S/B,genljS,,Gnsee&LJ Vlge
20001,Broadway & Leslie Ln,33.148963,-117.090834,,20001,0,,1,F-N/B,,,Brdwy&Leslie
20004,Brown St & Del Valle (Las Pulgas),33.350836,-117.411236,,20004,0,,2,N-E/B,,,Brown&Del Valle (Las Pulgas)
20006,Access Rd & Px,33.223164,-117.395502,,20006,0,,0,N-E/B,cpdelN,,Access&Px
20007,Vandegrift Bl & Ash Rd,33.231846,-117.389372,,20007,0,,0,N-N/B,,,Vandegrift&Ash
20018,Division St & Grant St,33.196127,-117.370258,,20018,0,,1,N-E/B,,,Division&Grant
20020,Division St & Country Club Ln,33.197026,-117.365342,,20020,0,,1,N-E/B,osdsnN,,Division&Country Club
20024,Vandegrift Bl & Area 26,33.317869,-117.327032,,20024,0,,2,N-E/B,,,Vandegrift&Area 26
20025,Oceanside Bl & Industry St,33.197836,-117.350109,,20025,0,,2,N-E/B,,,Oceanside&Industry
20026,Bldg 22114 & 10th St,33.294300,-117.350633,,20026,0,,0,N-E/B,,,Bldg 22114&10th
20027,Grand Av & Madison St,33.161625,-117.347768,,20027,0,,2,N-E/B,,,Grand&Madison
20030,Grand Av & Harding St,33.162834,-117.345663,,20030,0,,1,N-E/B,,,Grand&Harding
20032,Oceanside Bl & Camelot Dr,33.200654,-117.344325,,20032,0,,1,N-E/B,,,Oceanside&Camelot
20038,Oceanside Blvd & Garrison St,33.201671,-117.336612,,20038,0,,2,F-E/B,,,Oceanside& Garrison
20039,Mission Av & 3745 (Fireside St),33.223052,-117.334291,,20039,0,,1,F-E/B,,,Mission&3745 (Fireside)
20041,Mesa Dr & Garrison St,33.208641,-117.334341,,20041,0,,1,N-E/B,mesecE,,Mesa&Garrison
20045,Mission Av & El Camino Real,33.225368,-117.331348,,20045,0,,1,N-E/B,misecE,,Mission&El Cmo Real
20047,Magnolia Av & Brady Cr (Jr High),33.158370,-117.330382,,20047,0,,0,F-E/B,,,Magnolia&Brady Cr (Jr High)
20049,Sequoia & Angeles,33.347152,-117.322101,,20049,0,,2,N-E/B,,,Sequoia&Angeles
20051,Carlsbad Village Dr & Santa Clara Way,33.170542,-117.316929,,20051,0,,1,N-E/B,cvsanE,,Clsbd Vlge&Santa Clara Way
20054,Carlsbad Village Dr & Victoria Av,33.166484,-117.305737,,20054,0,,2,F-E/B,,,Clsbd Vlge&Victoria
20059,N River Rd & Redondo Dr,33.249539,-117.300802,,20059,0,,1,F-N/B,vanred,,N River&Redondo
20061,Barnard Dr & Meadow Ln,33.186713,-117.297372,,20061,0,,1,N-E/B,,,Barnard&Meadow
20063,Encinitas Bl & I-5,33.048490,-117.289603,,20063,0,,1,N-E/B,,,Encinitas&I-5
20066,Santa Fe Dr & Summit Av,33.036132,-117.288374,,20066,0,,1,N-E/B,,,Santa Fe&Summit
20067,Lake Bl & Thunder Dr,33.180104,-117.289004,,20067,0,,2,N-E/B,,,Lake&Thunder
20068,Lake Bl & Del Cerro Av,33.178493,-117.283866,,20068,0,,2,F-E/B,,,Lake&Del Cerro
20069,Santa Fe Dr & Santa Fe Plaza,33.036110,-117.283647,,20069,0,,1,N-E/B,ScripH,,Santa Fe&Santa Fe Pza
20070,Sky Haven Ln & Lake Bl,33.177627,-117.280542,,20070,0,,1,F-N/B,,,Sky Haven&Lake
20071,Encinitas Bl & Delphinium St,33.048643,-117.275794,,20071,0,,2,N-E/B,,,Encinitas&Delphinium
20075,W Vista Way & Hill Dr,33.192166,-117.271254,,20075,0,,2,N-E/B,,,W Vista Way&Hill
20077,Encinitas Bl & Balour Dr,33.045188,-117.269256,,20077,0,,2,N-E/B,,,Encinitas&Balour
20081,Lomas Santa Fe Dr & Solana Hills Dr,32.995952,-117.259347,,20081,0,,2,F-E/B,,,Lomas Santa Fe & Solana Hills
20085,Los Angeles Dr & Georgia Ln,33.213122,-117.250904,,20085,0,,2,N-E/B,,,Los Angeles&Georgia
20088,Bobier Dr & N Santa Fe Av,33.221068,-117.246482,,20088,0,,1,N-E/B,nsfbob,,Bobier&N Santa Fe
20090,E Vista Way & Franklin Ln,33.207349,-117.235903,,20090,0,,1,M-Street-N/B,,,E Vista Way&Franklin
20092,Williamston St & Vale Terrace Dr,33.209665,-117.229314,,20092,0,,0,M-Street-E/B,towviE,,Williamston & Vale
20094,E Vista Way & Palomar Pl,33.223300,-117.225995,,20094,0,,1,F-N/B,,,E Vista Way&Palomar
20095,Arcadia Av & E Vista Way,33.224857,-117.226826,,20095,0,,1,N-E/B,,,Arcadia&E Vista Way
20096,Arcadia Av & Oak Dr,33.224804,-117.222123,,20096,0,,2,N-E/B,,,Arcadia&Oak
20097,Poinsettia Av & Specialty Dr,33.140778,-117.219465,,20097,0,,2,N-E/B,,,Poinsettia&Specialty
20105,Mission Rd & Woodland Pkwy,33.140986,-117.137943,,20105,0,,1,F-E/B,,,Mission&Woodland
20106,Mission Rd & Rancheros Dr,33.135833,-117.130105,,20106,0,,2,N-E/B,,,Mission&Rnchros
20109,El Norte Pkwy & Bennett Av,33.152741,-117.121914,,20109,0,,1,N-E/B,,,El Norte&Bennett
20110,El Norte Pkwy & Las Palmas Ln,33.149936,-117.117239,,20110,0,,1,N-E/B,,,El Norte&Las Palmas
20111,Mission Rd & Washington Av,33.123960,-117.105755,,20111,0,,1,F-E/B,,,Mission & Wshngtn
20113,Country Club Ln & Eveningside Glen,33.159560,-117.095981,,20113,0,,2,F-E/B,ccbroE,,Country Club & Eveningside Glen
20115,Valley Pkwy & Tulip St,33.117327,-117.094102,,20115,0,,0,F-E/B,,,Vly&Tulip
20116,El Norte Pkwy & Las Villas Way,33.140738,-117.094707,,20116,0,,1,N-E/B,,,El Norte&Las Villas Way
20121,Mission Av & Cedar St,33.134242,-117.074152,,20121,0,,1,N-E/B,misash,,Mission&Cedar
20122,Washington Av & Date St,33.130396,-117.072584,,20122,0,,1,N-E/B,wasdat,,Wshngtn&Date
20123,Washington Av & Beech St,33.131846,-117.069958,,20123,0,,1,N-E/B,,,Wshngtn&Beech
20127,Sunset Dr & Royal Crest Dr,33.095546,-117.062615,,20127,0,,2,N-S/B,,,Sunset&Royal Crest
20129,Hwy 78 & Citrus Av,33.108913,-117.048840,,20129,0,,2,N-E/B,,,Hwy 78 & Citrus
20130,Valley Pkwy & Quarry Glen,33.138824,-117.048614,,20130,0,,1,N-E/B,,,Vly&Quarry Glen
20131,Hwy 78 & Summit Dr,33.106954,-117.044638,,20131,0,,2,N-E/B,,,Hwy 78 & Summit
20133,Valley Pkwy & Citrus Av (Vons),33.140212,-117.045562,,20133,0,,1,N-E/B,,,Vly&Citrus (Vons)
20134,Glenridge Rd & Mountain View Dr,33.126420,-117.044322,,20134,0,,1,N-E/B,,,Glenridge&Mtn View
20135,Valley Pkwy & Bear Valley Pkwy,33.143615,-117.038057,,20135,0,,1,F-E/B,,,Vly&Bear Vly
20136,Valley Center Rd & Lilac Rd,33.222316,-117.036509,,20136,0,,1,F-N/B,,,Vly Ctr & Lilac
20137,Valley Center Rd & Miller Rd,33.230823,-117.033388,,20137,0,,1,N-N/B,,,Vly Ctr & Miller
20138,Valley Center & Rock Hill Ranch Rd,33.228174,-117.006315,,20138,0,,1,N-E/B,,,Vly Ctr&Rock Hill Ranch
20139,Hwy 78 & Old Milky Way,33.087836,-116.991716,,20139,0,,2,N-S/B,,,Hwy 78 & Old Milky Way
20140,Valley Center Rd & N Lake Wohlford Rd,33.228055,-116.976403,,20140,0,,1,N-E/B,,,Vly Ctr&N Lake Wohlford
20141,Valley Center Rd & Hwy 76,33.287359,-116.957588,,20141,0,,1,N-N/B,,,Vly Ctr & Hwy 76
20142,Hwy 78 & Weekend Villa Rd,33.070031,-116.885581,,20142,0,,2,N-E/B,78wvr,,Hwy 78 & Weekend Villa
20155,Mission Av & Horne St,33.198369,-117.375219,,20155,0,,1,F-E/B,,,Mission&Horne
20157,Center Av & Horne St,33.195743,-117.373221,,20157,0,,1,F-E/B,,,Ctr&Horne
20160,Oceanside Bl & Coast Hwy,33.183736,-117.368824,,20160,0,,1,F-E/B,ocecoa,,Oceanside&Coast Hwy
20161,Mission Av & Brooks St,33.202004,-117.368325,,20161,0,,1,F-E/B,,,Mission&Brooks
20162,Oceanside Blvd & Ditmar St,33.184833,-117.366999,,20162,0,,1,F-E/B,,,Oceanside& Ditmar
20164,Mission Av & Canyon Dr,33.204719,-117.363534,,20164,0,,1,F-E/B,miscaE,,Mission&Cyn
20166,Mission Av & Carey Rd East,33.207290,-117.361223,,20166,0,,1,F-E/B,,,Mission&Carey East
20167,Oceanside Blvd & Commerce St,33.191376,-117.360536,,20167,0,,1,F-E/B,,,Oceanside& Commerce
20169,Vista Way & Coast Hwy,33.172241,-117.359108,,20169,0,,1,F-E/B,,,Vista Way&Coast Hwy
20170,Oceanside Blvd & State Tree Dr,33.192388,-117.358450,,20170,0,,1,F-E/B,ocstre,,Oceanside&ate Tree
20171,Mission Av & Mesa Dr,33.208643,-117.358703,,20171,0,,1,F-E/B,,,Mission&Mesa
20176,Mission Av & Carolyn Cir,33.213448,-117.347994,,20176,0,,1,F-E/B,misaiE,,Mission & Carolyn Cir
20177,E Av & 10th St,33.292766,-117.347938,,20177,0,,0,F-E/B,22area,,E&10th
20178,Carlsbad Village Dr & Harding St,33.162493,-117.343551,,20178,0,,1,F-E/B,,,Clsbd Vlge&Harding
20180,Mission Av & Foussat Rd,33.217063,-117.342800,,20180,0,,1,F-E/B,,,Mission&Foussat
20181,Vandegrift Bl & A St,33.304962,-117.342804,,20181,0,,1,F-E/B,22area,,Vandegrift&A
20182,Chestnut Av & Harding St,33.157650,-117.340830,,20182,0,,2,F-E/B,,,Chestnut&Harding
20183,Mesa Dr & Wilcox St,33.209941,-117.341294,,20183,0,,2,N-N/B,,,Mesa&Wilcox
20184,Mesa Dr & Sea Ridge Rd,33.211159,-117.340513,,20184,0,,2,F-N/B,,,Mesa&Sea Ridge
20185,Mission Av & Copperwood Way,33.218799,-117.340340,,20185,0,,1,F-E/B,,,Mission&Copperwood Way
20186,Oceanside Bl & Foussat Rd,33.201653,-117.340130,,20186,0,,1,F-E/B,,,Oceanside&Foussat
20189,Vista Way & Olson Way,33.183115,-117.336535,,20189,0,,1,F-E/B,,,Vista Way&Olson Way
20190,Marron Rd & Monroe St,33.176610,-117.336259,,20190,0,,1,F-E/B,,,Marron&Monroe
20191,Mesa Dr & Mainsail Rd,33.210879,-117.336590,,20191,0,,2,F-E/B,,,Mesa&Mainsail
20192,Carlsbad Village Dr & Valley St,33.167388,-117.335458,,20192,0,,2,F-E/B,,,Clsbd Vlge&Vly
20193,Tamarack Av & Pio Pico Dr,33.152761,-117.334873,,20193,0,,2,F-E/B,,,Tamarack&Pio Pico
20194,Oceanside Blvd & El Camino Real E,33.201631,-117.330273,,20194,0,,1,F-E/B,oceecr,,Oceanside& El Cmo Real E
20195,Vista Way & Via Esmarca,33.183108,-117.330868,,20195,0,,1,F-E/B,visesE,,Vista Way&Via Esmarca
20196,Mesa Dr & Pear Tree Ln,33.208673,-117.331746,,20196,0,,2,M-Street-E/B,ecrmes,,Mesa&Pear Tree
20197,Mission Av & Plaza Real,33.226492,-117.329353,,20197,0,,2,N-E/B,misecN,,Mission&Pza Real
20199,Vista Way & El Camino Real,33.182493,-117.325886,,20199,0,,1,F-E/B,visecr,,Vista Way&El Cmo Real
20200,Mesa Dr & Pearwood Dr,33.210443,-117.326627,,20200,0,,0,M-Street-E/B,,,Mesa&Pearwood
20201,Marron Rd & El Camino Real,33.177764,-117.324718,,20201,0,,1,F-E/B,,,Marron&El Cmo Real
20202,Vista Way & Valley Glen Dr,33.182438,-117.322570,,20202,0,,1,F-E/B,,,Vista Way&Vly Glen
20203,Sequoia & Angeles,33.347362,-117.322008,,20203,0,,2,F-W/B,,,Sequoia&Angeles
20204,Mesa Dr & Vanilla Way,33.212414,-117.321360,,20204,0,,2,M-Street-E/B,,,Mesa&Vanilla Way
20206,Vista Way & Paseo De Laura,33.181151,-117.317269,,20206,0,,2,F-E/B,,,Vista Way&Paseo De Laura
20207,Sequoia & Farrari,33.347063,-117.318766,,20207,0,,2,F-E/B,,,Sequoia&Farrari
20210,N River Rd & Avenida Descanso,33.245169,-117.313988,,20210,0,,1,F-E/B,,,N River &enida Descanso
20211,Mission Av & Mission Gate Dr,33.229867,-117.312059,,20211,0,,1,F-E/B,,,Mission&Mission Gate
20212,Oceanside Blvd & Rancho Del Oro Dr,33.203147,-117.310499,,20212,0,,2,F-E/B,rdosta,,Oceanside& Rcho Del Oro
20213,De Luz Rd & Wonson Dr,33.326655,-117.311745,,20213,0,,2,F-N/B,,,De Luz&Wonson
20216,De Luz Rd & Marine Dr,33.323687,-117.310823,,20216,0,,1,F-N/B,,,De Luz&Marine
20217,De Luz Rd & Vandegrift Bl,33.320869,-117.310271,,20217,0,,2,F-N/B,,,De Luz&Vandegrift
20218,N River Rd & Calle Montecito,33.245376,-117.308235,,20218,0,,1,F-E/B,,,N River&Calle Montecito
20219,Vandegrift Bl & 19th,33.317493,-117.309075,,20219,0,,2,F-E/B,,,Vandegrift&19th
20220,Mission Av & Old Grove Rd,33.229256,-117.305274,,20220,0,,1,F-E/B,misogE,,Mission&Old Grove
20222,Carlsbad Village Dr & Chatham Rd,33.166515,-117.303433,,20222,0,,2,F-E/B,,,Clsbd Vlge&Chatham
20226,Barnard Dr & Carr Dr,33.187928,-117.298279,,20226,0,,0,N-E/B,,,Barnard&Carr
20227,Lake Bl & Esplanade St,33.179297,-117.291178,,20227,0,,1,F-E/B,,,Lake&Esplanade
20228,Waring Rd & Waring Ct,33.187800,-117.290337,,20228,0,,1,F-E/B,,,Waring&Waring
20229,Oceanside Blvd & Avenida Del Oro,33.205968,-117.288673,,20229,0,,1,F-E/B,osdorE,,Oceanside&enida Del Oro
20230,Oceanside Blvd & Collge Blvd,33.207218,-117.284237,,20230,0,,1,F-E/B,,,Oceanside& Collgevd
20232,Encinitas Bl & Westlake St,33.047559,-117.278942,,20232,0,,1,F-E/B,,,Encinitas&Westlake
20233,W Vista Way & Emerald Dr,33.189141,-117.278850,,20233,0,,1,F-E/B,,,W Vista Way&Emerald
20236,Palomar Airport Rd & Yarrow Dr,33.125777,-117.274614,,20236,0,,1,F-E/B,paryaN,,Palomar Airport&Yarrow
20238,W Vista Way & Grapevine Rd,33.190658,-117.274527,,20238,0,,1,F-E/B,,,W Vista Way&Grapevine
20240,Oceanside Blvd & Peacock Blvd,33.214492,-117.273002,,20240,0,,2,F-E/B,,,Oceanside& Peacockvd
20242,Lomas Santa Fe Dr & Rios Av,32.992361,-117.268942,,20242,0,,1,F-E/B,,,Lomas Santa Fe & Rios
20244,Oceanside Blvd & Temple Heights Dr,33.216885,-117.270114,,20244,0,,1,F-E/B,,,Oceanside& Temple Heights
20245,N Santa Fe Av & Champlain St,33.239524,-117.270411,,20245,0,,1,F-E/B,,,N Santa Fe&Champlain
20248,Encinitas Bl & Beechtree Dr,33.045972,-117.263959,,20248,0,,1,N-E/B,,,Encinitas&Beechtree
20251,Lomas Santa Fe Dr & Hilmen Dr,32.995520,-117.264254,,20251,0,,1,F-E/B,,,Lomas Santa Fe & Hilmen
20252,Oceanside Blvd & 4927,33.218449,-117.268182,,20252,0,,2,M-Street-E/B,,,Oceanside& 4927
20253,W Vista Way & Santa Clara Dr,33.194247,-117.265705,,20253,0,,2,N-E/B,,,W Vista Way&Santa Clara
20254,N Santa Fe Av & Darwin Dr,33.237237,-117.264762,,20254,0,,1,F-E/B,,,N Santa Fe&Darwin
20255,W Vista Way & Copper Av,33.194472,-117.260836,,20255,0,,2,F-E/B,,,W Vista Way&Copper
20258,Encinitas Bl & Cam Delas Flores,33.045606,-117.254660,,20258,0,,1,F-E/B,,,Encinitas&Cam Delas Flores
20262,W Vista Way & Melrose Dr,33.195461,-117.253979,,20262,0,,1,F-E/B,wvisme,,W Vista Way&Melrose
20267,Encinitas Bl & Village Park Way,33.044904,-117.248461,,20267,0,,1,F-E/B,,,Encinitas&Vlge Park Way
20268,S Mission Rd & Ammunition Rd,33.370413,-117.251869,,20268,0,,1,F-S/B,misamS,,S Mission&Ammunition
20271,Encinitas Bl & Willowspring Dr,33.041357,-117.244143,,20271,0,,2,F-E/B,,,Encinitas&Willowspring
20273,Park Center Dr & Melrose Dr,33.139723,-117.243973,,20273,0,,2,F-E/B,pkcmel,,Park Ctr&Melrose
20280,S Santa Fe Av & Guajome St,33.195952,-117.238227,,20280,0,,1,F-E/B,,,S Santa Fe&Guajome
20281,La Costa Av & Rancho Santa Fe Rd,33.081175,-117.236569,,20281,0,,1,F-E/B,rsflaS,,La Costa&Rcho Santa Fe
20285,E Vista Way & Townsite Dr,33.210196,-117.233955,,20285,0,,1,F-N/B,,,E Vista Way&Townsite
20287,S Santa Fe Av & Civic Center Dr,33.193511,-117.233800,,20287,0,,0,F-E/B,ssfccE,,S Santa Fe&Civic Ctr
20288,La Costa Av & Calle Timiteo,33.079807,-117.231996,,20288,0,,2,F-E/B,,,La Costa&Calle Timiteo
20289,Arcadia Av & Anza Av,33.224899,-117.231611,,20289,0,,2,F-E/B,,,Arcadia&Anza
20291,E Vista Way & Vale Terrace Dr,33.211104,-117.231005,,20291,0,,1,F-E/B,,,E Vista Way&Vale
20292,Camino De Los Coches & Via Callendo,33.078398,-117.229770,,20292,0,,2,F-N/B,,,Cmo De Los Coches&Via Callendo
20295,Vale Terrace Dr & Ponderosa Dr,33.208869,-117.225930,,20295,0,,2,F-E/B,,,Vale & Ponderosa
20298,Via De La Valle & Caminito Porta Delgada,32.983777,-117.219320,,20298,0,,1,N-E/B,,,V dl Valle & Cmto Porta Delgada
20299,Sycamore Av & Grand Av,33.155851,-117.224077,,20299,0,,2,F-N/B,,,Sycamore&Grand
20300,Poinsettia Av & Linda Vista Dr,33.137187,-117.222983,,20300,0,,2,F-N/B,,,Poinsettia&L Vsta
20302,Shadowridge & Watson Way,33.166195,-117.221450,,20302,0,,1,F-E/B,shawaE,,Shadowridge&Watson Way
20305,S Santa Fe Av & Woodland Dr,33.175723,-117.212670,,20305,0,,1,F-E/B,,,S Santa Fe&Woodland
20306,Via De La Valle & Calzada Del Bosque,33.005343,-117.208389,,20306,0,,1,F-N/B,,,V dl Valle&Calzada Del Bosque
20307,S Santa Fe Av & Robelini Dr,33.173523,-117.209021,,20307,0,,1,F-S/B,bcstaE,,S Santa Fe&Robelini
20309,S Santa Fe Av & Azalea Dr,33.169104,-117.206423,,20309,0,,1,F-S/B,,,S Santa Fe & Azalea
20311,Paseo Delicias & Via De La Valle,33.023524,-117.198620,,20311,0,,1,F-E/B,delvaE,,Paseo Delicias&V dl Valle
20312,S Santa Fe Av & Las Flores Dr,33.156551,-117.199869,,20312,0,,1,F-E/B,,,S Santa Fe&Las Flores
20314,Mission Rd & Rancho Santa Fe Rd,33.152295,-117.195160,,20314,0,,2,F-E/B,,,Mission&Rcho Santa Fe
20315,Mission Rd & Pacific St,33.150397,-117.191895,,20315,0,,1,F-E/B,,,Mission&Pcfc
20316,Paseo Delicas & La Valle Plateada,33.030363,-117.190657,,20316,0,,1,F-E/B,,,Paseo Delicas&La Valleateada
20318,Del Dios Hwy & Via Cuatro Caminos,33.034742,-117.175648,,20318,0,,1,F-E/B,diocua,,Del Dios Hwy&Via Cuatro Cmos
20321,Mission Rd & Marcos St,33.144362,-117.169827,,20321,0,,1,F-E/B,,,Mission&Marcos
20322,Mission Rd & Pico Av,33.143261,-117.165548,,20322,0,,1,F-E/B,picmis,,Mission&Pico
20323,Mission Rd & San Marcos Bl,33.142338,-117.161781,,20323,0,,1,N-E/B,msnsmE,,Mission&San Marcos
20324,Mission Rd & Mulberry Dr,33.144715,-117.150022,,20324,0,,0,M-Street-E/B,,,Mission&Mulberry
20328,El Norte Pkwy & Country Club Ln,33.154728,-117.125264,,20328,0,,1,F-E/B,enpccS,,El Norte&Country Club
20329,Mission Rd & Auto Park Wy,33.129990,-117.122157,,20329,0,,1,F-E/B,msnnoE,,Mission&Auto Park
20331,El Norte Pkwy & Rees Rd,33.148448,-117.114688,,20331,0,,1,F-E/B,,,El Norte&Rees
20332,Country Club Ln & La Brea St,33.157409,-117.114137,,20332,0,,1,F-E/B,,,Country Club&La Brea
20333,Mission Rd & Enterprise St,33.125995,-117.112197,,20333,0,,2,F-E/B,,,Mission&Enterprise
20336,Country Club Ln & Nutmeg St,33.157109,-117.109011,,20336,0,,1,F-E/B,,,Country Club&Nutmeg
20337,El Norte Pkwy & Nordahl Rd,33.147096,-117.108209,,20337,0,,1,F-E/B,,,El Norte&Nordahl
20338,El Norte Pkwy & Seven Oaks Rd,33.145903,-117.102381,,20338,0,,0,F-E/B,,,El Norte&Seven Oaks
20339,Valley Pkwy & Auto Park Wy,33.112327,-117.102255,,20339,0,,0,N-N/B,,,Vly&Auto Park
20340,Mission Av & Metcalf St,33.125387,-117.100961,,20340,0,,1,F-E/B,,,Mission&Metcalf
20343,Country Club Ln & Village Rd,33.159029,-117.099937,,20343,0,,1,N-E/B,vilccl,,Country Club&Vlge
20344,El Norte Pkwy & Iris Ln (525),33.144548,-117.099128,,20344,0,,2,N-E/B,,,El Norte&Iris (525)
20345,Lincoln Av & Eden Pl,33.130197,-117.098052,,20345,0,,1,F-E/B,linroc,,Lincoln&Eden
20346,Lincoln Av & Avocado Av,33.130920,-117.095684,,20346,0,,2,F-E/B,,,Lincoln&Avocado
20348,El Norte Pkwy & Morning View Dr,33.143701,-117.097169,,20348,0,,1,N-E/B,,,El Norte&Morning View
20349,El Norte Pkwy & Escondido Bl,33.139189,-117.092260,,20349,0,,1,F-E/B,,,El Norte&Escondido
20353,2nd Av & Escondido Bl,33.119484,-117.083166,,20353,0,,1,F-E/B,,,2nd&Escondido
20355,Washington Av & Juniper St,33.127594,-117.081472,,20355,0,,1,F-E/B,,,Wshngtn&Juniper
20357,2nd Av & Broadway,33.120835,-117.080486,,20357,0,,1,F-E/B,,,2nd&Brdwy
20360,Mission Av & Fig St,33.133074,-117.076624,,20360,0,,1,F-E/B,msnfiE,,Mission&Fig
20361,Washington Av & Grape St,33.129131,-117.076521,,20361,0,,1,F-E/B,,,Wshngtn&Grape
20365,Grand Av & Fig St,33.124960,-117.072559,,20365,0,,1,F-E/B,grfigE,,Grand&Fig
20367,Lincoln Av & Harding St,33.140737,-117.069891,,20367,0,,1,F-E/B,,,Lincoln&Harding
20368,Grand Av & Date St,33.125917,-117.069514,,20368,0,,1,F-E/B,,,Grand&Date
20372,Valley Pkwy & Ash St,33.130752,-117.066244,,20372,0,,1,F-E/B,,,Vly&Ash
20375,Grand Av & Ash St,33.127410,-117.064553,,20375,0,,1,F-E/B,,,Grand&Ash
20376,Grand Av & Ohio Av,33.128193,-117.062849,,20376,0,,1,F-E/B,,,Grand&Ohio
20377,Grand Av & Rose St,33.130959,-117.056838,,20377,0,,1,F-W/B,,,Grand&Rose
20378,Grand Av & Fernwood Av,33.131739,-117.055140,,20378,0,,1,N-E/B,,,Grand&Fernwood
20379,Grand Av & Foxdale Pl,33.133562,-117.051207,,20379,0,,1,F-E/B,gramid,,Grand&Foxdale
20380,Valley Pkwy & Midway Dr,33.137664,-117.051078,,20380,0,,2,F-E/B,valmiE,,Vly&Midway
20383,Valley Center Rd & Calle De Vista,33.218905,-117.033713,,20383,0,,1,N-N/B,,,Vly Ctr & Calle De Vista
20384,Valley Pkwy & Hidden Trails Rd,33.150428,-117.032665,,20384,0,,1,F-E/B,,,Vly & Hidden Trails
20385,Valley Center Rd & Lake Wohlford Rd,33.159548,-117.030821,,20385,0,,1,N-N/B,,,Vly Ctr & Lake Wohlford
20386,Valley Center Rd & Cole Grade Rd,33.231125,-117.023569,,20386,0,,1,F-W/B,valcoE,,Vly Ctr & Cole Grade
20387,Hwy 78 & Safari Park Outside Gate,33.094152,-117.002314,,20387,0,,2,F-E/B,78wap,,Hwy 78 & Safari Park Outside Gate
20388,Valley Center Rd & Queensbridge Rd,33.228216,-116.995725,,20388,0,,1,F-E/B,,,Vly Ctr & Queensbridge
20389,Valley Center Rd & N Paradise Creek Ln,33.257131,-116.957947,,20389,0,,1,F-N/B,,,Vly Ctr & N Paradise Creek
20393,Vandegrift Bl & Stuart Mesa Rd,33.233738,-117.388596,,20393,0,,0,N-S/B,,,Vandegrift&Stuart Mesa
20399,Center Av & Horne St,33.195749,-117.373483,,20399,0,,1,N-W/B,,,Ctr&Horne
20402,Mission Av & San Diego St,33.201945,-117.368844,,20402,0,,1,N-W/B,,,Mission&San Diego
20404,Division St & Brooks St,33.196811,-117.366906,,20404,0,,2,N-W/B,,,Division&Brooks
20406,Oceanside Bl & Vine St,33.188432,-117.364625,,20406,0,,1,F-W/B,,,Oceanside&Vine
20409,Mission Av & Amick St,33.208791,-117.359048,,20409,0,,1,N-W/B,,,Mission&Amick
20413,Bldg 22114 & 9th St,33.293705,-117.352282,,20413,0,,0,N-W/B,,,Bldg 22114&9th
20416,Mesa Dr & Barnwell St,33.205035,-117.348019,,20416,0,,1,N-W/B,,,Mesa & Barnwell
20417,E St & 10th St,33.292646,-117.348125,,20417,0,,1,N-W/B,22area,,E&10th
20419,Carlsbad Village Dr & Harding St,33.162401,-117.343972,,20419,0,,1,N-W/B,,,Clsbd Vlge&Harding
20421,Chestnut Av & Harding St,33.157750,-117.340897,,20421,0,,1,N-W/B,,,Chestnut&Harding
20422,Carlsbad Village Dr & Pio Pico Dr (Library),33.164698,-117.340007,,20422,0,,1,N-W/B,piccar,,Clsbd Vlge&Pio Pico (Library)
20425,Vista Way & Olson Way,33.183315,-117.336512,,20425,0,,1,N-W/B,,,Vista Way&Olson Way
20426,Tamarack Av & Pio Pico Dr,33.152960,-117.334919,,20426,0,,1,N-W/B,,,Tamarack&Pio Pico
20431,Mission Av & El Camino Real,33.226590,-117.330058,,20431,0,,1,N-W/B,misecW,,Mission&El Cmo Real
20432,Vandegrift Bl & Rattlesnake Canyon Rd,33.317745,-117.327384,,20432,0,,2,N-W/B,,,Vandegrift&Rattlesnake Cyn
20433,Vista Way & El Camino Real,33.182990,-117.326216,,20433,0,,1,N-W/B,visecr,,Vista Way&El Cmo Real
20434,Marron Rd & El Camino Real,33.177897,-117.325695,,20434,0,,1,N-W/B,,,Marron&El Cmo Real
20441,Mission Av & Old Grove Rd,33.229234,-117.305937,,20441,0,,1,N-W/B,,,Mission&Old Grove
20448,Barnard Dr & Meadow Ln,33.186618,-117.297001,,20448,0,,1,N-W/B,,,Barnard&Meadow
20451,Waring Rd & Waring Ct,33.187922,-117.290862,,20451,0,,1,F-W/B,,,Waring&Waring
20452,Santa Fe Dr & Arden Dr,33.036251,-117.287938,,20452,0,,1,N-W/B,,,Santa Fe&Arden
20453,Encinitas Blvd & Essex Heights,33.047779,-117.283323,,20453,0,,1,N-W/B,,,Encinitas& Essex Heights
20454,Lake Bl & Surf Pl,33.178622,-117.283904,,20454,0,,1,N-W/B,,,Lake&Surf
20455,W Vista Way & Cedar Rd,33.186474,-117.283248,,20455,0,,2,N-W/B,,,W Vista Way&Cedar
20459,W Vista Way & Emerald Dr,33.189333,-117.278846,,20459,0,,1,N-W/B,,,W Vista Way&Emerald
20463,W Vista Way & Grapevine Rd,33.190375,-117.275525,,20463,0,,1,N-W/B,,,W Vista Way&Grapevine
20466,Encinitas Bl & Via Cantebria,33.046061,-117.267706,,20466,0,,2,F-W/B,,,Encinitas&Via Cantebria
20478,Vista Village Dr & Citrus Av,33.203776,-117.241267,,20478,0,,1,F-W/B,,,Vista Vlge&Citrus
20480,Camino De Los Coches & Calle Timiteo,33.075566,-117.236395,,20480,0,,2,N-W/B,,,Cmo De Los Coches&Calle Timiteo
20482,La Costa Av & Rancho Santa Fe Rd,33.081352,-117.236382,,20482,0,,1,N-E/B,rsflaN,,La Costa&Rcho Santa Fe
20485,S Santa Fe Av & Civic Center Dr,33.193497,-117.233178,,20485,0,,1,N-W/B,ssfccW,,S Santa Fe&Civic Ctr
20486,Arcadia Av & Anza Av,33.225040,-117.232072,,20486,0,,2,N-W/B,,,Arcadia&Anza
20487,Eucalyptus & Avalon Dr,33.201691,-117.232698,,20487,0,,0,F-W/B,eucivW,,Eucalyptus&Avalon
20488,Vale Terrace Dr & E Vista Way,33.210874,-117.229625,,20488,0,,0,N-N/B,wilvsE,,Vale & E Vista Way
20490,S Santa Fe Av & Service Pl,33.188356,-117.225749,,20490,0,,1,N-N/B,,,S Santa Fe&Service
20491,Beaumont Dr & Eucalyptus Av,33.197520,-117.224890,,20491,0,,2,N-S/B,,,Beaumont&Eucalyptus
20493,Coventry Rd & Beaumont Dr,33.201790,-117.223310,,20493,0,,0,N-W/B,,,Coventry&Beaumont
20494,S Santa Fe & Montgomery Dr,33.183167,-117.219231,,20494,0,,1,N-N/B,,,S Santa Fe&Montgomery
20495,S Santa Fe Av & York Dr,33.175504,-117.212100,,20495,0,,1,N-N/B,,,S Santa Fe&York
20496,Mission Rd & Rancho Santa Fe Rd,33.152883,-117.195265,,20496,0,,1,N-W/B,,,Mission&Rcho Santa Fe
20497,Mission Rd & Pacific St,33.150524,-117.191766,,20497,0,,1,N-W/B,,,Mission&Pcfc
20498,Mission Rd & Pico Av,33.143446,-117.165539,,20498,0,,1,N-W/B,,,Mission&Pico
20499,Country Club Ln & El Norte Pkwy,33.155764,-117.125040,,20499,0,,1,F-N/B,enpccN,,Country Club&El Norte
20500,El Norte Pkwy & Rees Rd,33.149171,-117.115397,,20500,0,,1,F-W/B,,,El Norte&Rees
20506,El Norte Pkwy & Morning View Dr,33.141719,-117.094813,,20506,0,,1,N-W/B,,,El Norte&Morning View
20513,Grand Av & Valley Bl,33.124297,-117.075499,,20513,0,,1,N-W/B,grvalW,,Grand&Vly
20514,Grand Av & Fig St,33.125070,-117.072570,,20514,0,,1,N-W/B,grfigW,,Grand&Fig
20515,Washington Av & Date St,33.130749,-117.072058,,20515,0,,1,N-W/B,wasdat,,Wshngtn&Date
20516,Grand Av & Ash St,33.127501,-117.064770,,20516,0,,0,,,,Grand & Ash
20517,Washington Av & Beech St,33.132005,-117.069940,,20517,0,,1,F-W/B,,,Wshngtn&Beech
20518,Grand Av & Beech St,33.126873,-117.066812,,20518,0,,1,N-W/B,,,Grand&Beech
20519,Washington Av & Harding St,33.134367,-117.065990,,20519,0,,1,F-W/B,washaW,,Wshngtn&Harding
20521,Washington Av & Mills St,33.136429,-117.062553,,20521,0,,1,N-W/B,,,Wshngtn&Mills
20522,Valley Pkwy & Midway Dr,33.138384,-117.050306,,20522,0,,1,N-W/B,valmiW,,Vly&Midway
20523,Hwy 78 & Summit Dr,33.107457,-117.044995,,20523,0,,2,N-W/B,,,Hwy 78 & Summit
20524,Glenridge Rd & Mountain View Dr,33.126444,-117.044547,,20524,0,,1,F-W/B,,,Glenridge & Mtn View
20525,Valley Center Rd & Lake Wohlford Rd,33.159893,-117.030990,,20525,0,,1,N-S/B,,,Vly Ctr & Lake Wohlford
20526,Hwy 78 & Safari Park Outside Gate,33.094026,-117.001309,,20526,0,,2,N-W/B,78wap,,Hwy 78 & Safari Park Outside Gate
20532,Vandegrift Bl & Stuart Mesa Rd,33.232295,-117.389306,,20532,0,,2,F-W/B,,,Vandegrift&Stuart Mesa
20538,Mission Av & Ditmar St,33.196770,-117.378210,,20538,0,,1,F-W/B,,,Mission&Ditmar
20540,Mission Av & Clementine St,33.197900,-117.376354,,20540,0,,1,N-W/B,,,Mission&Clementine
20545,Division St & Grant St,33.196222,-117.370429,,20545,0,,1,F-W/B,,,Division&Grant
20546,Oceanside Blvd & Ditmar St,33.184792,-117.367504,,20546,0,,1,F-W/B,,,Oceanside& Ditmar
20547,Mission Av & Canyon Dr,33.204136,-117.364743,,20547,0,,1,F-W/B,miscaW,,Mission&Cyn
20550,Mission Av & Carey Rd,33.206778,-117.362056,,20550,0,,1,F-W/B,,,Mission&Carey
20551,Oceanside Blvd & State Tree Dr,33.192216,-117.359315,,20551,0,,1,F-W/B,ocstre,,Oceanside&ate Tree
20553,Oceanside Blvd & 1906,33.193684,-117.356260,,20553,0,,1,M-Street-W/B,,,Oceanside& 1906
20556,Oceanside Blvd & Crouch St,33.194880,-117.354128,,20556,0,,1,F-W/B,osdcrW,,Oceanside& Crouch
20557,Vista Way & Lincoln St,33.174824,-117.355131,,20557,0,,1,F-W/B,,,Vista Way&Lincoln
20559,Oceanside Bl & Hoover St,33.198046,-117.350206,,20559,0,,2,F-W/B,,,Oceanside&Hoover
20561,Grand Av & Roosevelt St,33.161196,-117.348898,,20561,0,,1,F-W/B,,,Grand&Roosevelt
20562,Mission Av & Airport Rd,33.213117,-117.348845,,20562,0,,1,F-W/B,misaiW,,Mission&Airport
20563,Oceanside Bl & Macdonald St,33.199297,-117.347691,,20563,0,,1,F-W/B,,,Oceanside&Macdonald
20564,Mesa Dr & Parnassus Cir (S),33.206617,-117.347189,,20564,0,,1,F-S/B,,,Mesa & Parnassus Cir (S)
20565,Mesa Dr & Parnassus Cir (N),33.207778,-117.346656,,20565,0,,1,F-S/B,,,Mesa & Parnassus Cir (N)
20567,Mission Av & Roymar Rd,33.215142,-117.346002,,20567,0,,1,F-W/B,,,Mission&Roymar
20568,Oceanside Bl & Barnwell St,33.200541,-117.345052,,20568,0,,2,F-W/B,,,Oceanside&Barnwell
20569,Mesa Dr & Foussat Rd,33.209165,-117.343997,,20569,0,,1,F-W/B,,,Mesa&Foussat
20570,Mission Av & Foussat Rd,33.216603,-117.343919,,20570,0,,1,F-W/B,,,Mission&Foussat
20575,Oceanside Blvd & Edgehill Ln,33.201852,-117.340417,,20575,0,,2,F-W/B,,,Oceanside& Edgehill
20579,Oceanside Blvd & Garrison St,33.201857,-117.337734,,20579,0,,1,F-W/B,,,Oceanside& Garrison
20580,Mesa Dr & Mainsail Rd,33.211561,-117.337107,,20580,0,,1,F-W/B,,,Mesa&Mainsail
20581,Carlsbad Village Dr & Valley St,33.167475,-117.335538,,20581,0,,1,N-W/B,,,Clsbd Vlge&Vly
20582,Mission Av & Fireside St,33.222673,-117.335262,,20582,0,,1,N-W/B,,,Mission&Fireside
20583,Mesa Dr & El Camino Real,33.208755,-117.334008,,20583,0,,1,F-W/B,mesecW,,Mesa&El Cmo Real
20585,Vista Way & Via Esmarca,33.183364,-117.331826,,20585,0,,1,F-W/B,visesW,,Vista Way&Via Esmarca
20587,Mission Av & El Camino Real,33.224800,-117.332396,,20587,0,,1,F-W/B,misecr,,Mission&El Cmo Real
20588,Mesa Dr & Pear Tree Ln,33.209307,-117.330283,,20588,0,,2,F-W/B,,,Mesa&Pear Tree
20589,Magnolia Av & Brady Circle,33.158578,-117.330276,,20589,0,,2,N-W/B,,,Magnolia&Brady Cir
20590,El Camino Real & Coco Palms Dr,33.229151,-117.330129,,20590,0,,1,F-W/B,,,El Cmo Real&Coco Palms
20591,El Camino Real & Laguna Vista MHP (Gate),33.229979,-117.328085,,20591,0,,1,M-Special_Loc,douecr,,El Cmo Real&Laguna Vista MHP (Gate)
20592,Vista Way & Target,33.183344,-117.329490,,20592,0,,1,F-W/B,,,Vista Way & Target
20593,Mesa Dr & Pearwood Dr,33.210516,-117.326723,,20593,0,,2,N-W/B,,,Mesa&Pearwood
20595,Vandegrift Bl & Santa Margarita Rd,33.321277,-117.325404,,20595,0,,1,F-W/B,,,Vandegrift&Santa Margarita
20596,Vista Way & Valley Glen Dr,33.182710,-117.323006,,20596,0,,2,F-W/B,,,Vista Way&Vly Glen
20597,Mesa Dr & Vanilla Way,33.212801,-117.321232,,20597,0,,1,F-W/B,,,Mesa&Vanilla Way
20599,Carlsbad Village Dr & Appian Rd,33.170640,-117.317417,,20599,0,,2,N-W/B,cvsanW,,Clsbd Vlge & Appian
20601,Mesa Dr & Rancho Del Oro Dr,33.214505,-117.318395,,20601,0,,1,F-W/B,,,Mesa&Rcho Del Oro
20602,Vista Way & Paseo De Laura,33.181585,-117.318120,,20602,0,,2,F-W/B,,,Vista Way&Paseo De Laura
20603,N River Rd & Festival Dr,33.245460,-117.318197,,20603,0,,1,F-W/B,,,N River&Festival
20605,N River Rd & Avenida Descanso,33.245437,-117.315060,,20605,0,,1,F-W/B,,,N River &enida Descanso
20608,N River Rd & Calle Montecito,33.245481,-117.309249,,20608,0,,1,F-W/B,,,N River&Calle Montecito
20613,Carlsbad Village Dr & Victoria Av,33.166703,-117.305819,,20613,0,,1,F-W/B,,,Clsbd Vlge&Victoria
20618,Carlsbad Village Dr & Tamarack Av,33.167198,-117.301194,,20618,0,,2,F-W/B,,,Clsbd Vlge&Tamarack
20622,Barnard Dr & Carr Dr,33.188279,-117.298404,,20622,0,,1,F-W/B,,,Barnard&Carr
20625,Waring Rd & Camarillo Av,33.186761,-117.294235,,20625,0,,1,F-W/B,,,Waring&Camarillo
20628,Encinitas Bl & I-5,33.048756,-117.289701,,20628,0,,2,F-W/B,,,Encinitas&I-5
20631,Thunder Dr & Tri-City Medical,33.186250,-117.288365,,20631,0,,1,M-Street-E/B,,,Thunder & Tri-City Medical
20632,Lake Bl & Thunder Dr,33.180189,-117.288394,,20632,0,,1,F-W/B,,,Lake&Thunder
20633,Oceanside Blvd & College Blvd,33.207196,-117.285942,,20633,0,,1,F-W/B,,,Oceanside& Collvd
20634,Lake Bl & Twilight Ln,33.178293,-117.281726,,20634,0,,1,F-W/B,,,Lake&Twilight
20635,Oceanside Bl & Arroyo Av,33.208605,-117.281851,,20635,0,,1,F-W/B,,,Oceanside&Arroyo
20636,Encinitas Bl & Quail Gardens Dr,33.047711,-117.279104,,20636,0,,2,N-W/B,,,Encinitas&Quail Gardens
20637,W Vista Way & Emerald Dr,33.188312,-117.280572,,20637,0,,1,F-W/B,wvisem,,W Vista Way&Emerald
20639,Encinitas Bl & Delphinium St,33.048892,-117.276022,,20639,0,,1,F-W/B,,,Encinitas&Delphinium
20642,Oceanside Blvd & Beverly Glen Dr,33.212685,-117.275694,,20642,0,,1,F-W/B,,,Oceanside& Beverly Glen
20643,N Santa Fe Av & Mesa Dr,33.241779,-117.275939,,20643,0,,2,F-W/B,,,N Santa Fe&Mesa
20644,Oceanside Blvd & Peacock Blvd,33.214209,-117.273807,,20644,0,,1,F-W/B,,,Oceanside& Peacockvd
20647,Lomas Santa Fe Dr & Granados Av,32.992883,-117.268755,,20647,0,,2,F-W/B,,,Lomas Santa Fe & Granados
20649,W Vista Way & Hill Dr,33.192136,-117.271681,,20649,0,,1,F-W/B,,,W Vista Way&Hill
20650,Oceanside Blvd & Temple Heights Dr,33.216558,-117.270972,,20650,0,,1,F-W/B,,,Oceanside& Temple Heights
20651,N Santa Fe Av & Champlain St,33.239864,-117.271096,,20651,0,,1,F-W/B,,,N Santa Fe&Champlain
20654,Lomas Santa Fe Dr & Nardo Av,32.995257,-117.265884,,20654,0,,1,N-W/B,,,Lomas Santa Fe & Nardo
20658,Palomar Airport Rd & El Camino Real,33.129514,-117.267885,,20658,0,,1,F-W/B,ecrpal,,Palomar Airport&El Cmo Real
20660,W Vista Way & Santa Clara Dr,33.194155,-117.266353,,20660,0,,2,F-W/B,,,W Vista Way&Santa Clara
20662,N Santa Fe Av & Darwin Dr,33.237900,-117.265016,,20662,0,,2,F-N/B,,,N Santa Fe&Darwin
20664,Lomas Santa Fe Dr & Solana Hills Dr,32.996228,-117.259585,,20664,0,,1,F-W/B,,,Lomas Santa Fe & Solana Hills
20665,W Vista Way & Copper Av,33.194624,-117.262105,,20665,0,,1,F-W/B,,,W Vista Way&Copper
20669,Encinitas Bl & Turner Av,33.045889,-117.255204,,20669,0,,1,F-W/B,,,Encinitas&Turner
20672,W Vista Way & Hwy 78 Wb On Ramp,33.194808,-117.256965,,20672,0,,1,F-W/B,,,W Vista Way&Hwy 78 Wb On Ramp
20679,W Vista Way & Valencia Dr,33.196799,-117.251585,,20679,0,,1,F-W/B,,,W Vista Way&Valencia
20681,Encinitas Bl & Village Park Way,33.045330,-117.249093,,20681,0,,1,F-W/B,,,Encinitas&Vlge Park Way
20686,Vista Village Dr & Camino Corto,33.199928,-117.247646,,20686,0,,1,F-S/B,,,Vista Vlge&Cmo Corto
20687,Encinitas Bl & Willowspring Dr,33.042507,-117.244730,,20687,0,,2,F-N/B,,,Encinitas&Willowspring
20690,Bobier Dr & N Santa Fe Av,33.221270,-117.245644,,20690,0,,1,F-W/B,nsfbob,,Bobier&N Santa Fe
20691,Encinitas Bl & Rancho Santa Fe Rd,33.037696,-117.239347,,20691,0,,2,F-W/B,rsfenS,,Encinitas&Rcho Santa Fe
20693,S Santa Fe Av & Terrace Dr,33.196947,-117.239229,,20693,0,,0,F-N/B,,,S Santa Fe&Ter
20694,Vista Village Dr & Hillside Ter,33.205112,-117.237560,,20694,0,,2,F-S/B,,,Vista Vlge&Hillside
20695,E Vista Way & Franklin Ln,33.207226,-117.236209,,20695,0,,1,F-S/B,,,E Vista Way&Franklin
20696,E Vista Way & Townsite Dr,33.209153,-117.235469,,20696,0,,1,F-S/B,,,E Vista Way&Townsite
20697,La Costa Av & Calle Timiteo,33.079664,-117.232001,,20697,0,,1,F-E/B,,,La Costa&Calle Timiteo
20699,E Vista Way & Anza Av,33.211174,-117.232452,,20699,0,,1,F-W/B,,,E Vista Way&Anza
20700,S Santa Fe Av & Alta Calle,33.192457,-117.230244,,20700,0,,1,F-W/B,,,S Santa Fe&Alta Calle
20701,Eucalyptus Av & Alestar St,33.200676,-117.229662,,20701,0,,2,F-W/B,,,Eucalyptus&Alestar
20702,Via De La Valle & El Camino Real (N),32.983402,-117.226141,,20702,0,,2,N-W/B,,,V dl Valle&El Cmo Real (N)
20706,E Vista Way & Palomar Pl,33.222960,-117.226269,,20706,0,,1,F-S/B,,,E Vista Way&Palomar
20707,Arcadia Av & E Vista Way,33.225000,-117.227255,,20707,0,,1,F-W/B,arcviW,,Arcadia&E Vista Way
20709,S Santa Fe Av & Cypress Dr,33.185650,-117.223859,,20709,0,,1,F-N/B,,,S Santa Fe&Cypress
20710,Poinsettia Av & Island View Way,33.136275,-117.223745,,20710,0,,2,F-S/B,,,Poinsettia&Island View Way
20711,Poinsettia Av & Specialty Dr,33.140962,-117.219544,,20711,0,,2,F-S/B,,,Poinsettia&Specialty
20712,Coventry Rd & Lynmar Ln,33.203192,-117.219739,,20712,0,,2,F-W/B,,,Coventry&Lynmar
20713,Via De La Valle & Cancha De Golf,32.994376,-117.212255,,20713,0,,1,N-S/B,,,V dl Valle&Cancha De Golf
20714,Shadowridge Dr & Sycamore Av,33.164993,-117.217243,,20714,0,,1,F-W/B,sycsha,,Shadowridge&Sycamore
20715,Via De La Valle & Calzada Del Bosque,33.004849,-117.208622,,20715,0,,1,F-S/B,,,V dl Valle&Calzada Del Bosque
20716,S Santa Fe Av & Palmyra Dr,33.171347,-117.207138,,20716,0,,1,F-N/B,,,S Santa Fe&Palmyra
20717,S Santa Fe Av & Bosstick Bl,33.159902,-117.203507,,20717,0,,1,F-N/B,,,S Santa Fe&Bosstick
20718,Paseo Delicias & La Fremontia,33.023514,-117.198855,,20718,0,,1,F-S/B,delvaW,,Paseo Delicias&La Fremontia
20719,S Santa Fe Av & Las Flores Dr,33.157196,-117.200668,,20719,0,,1,F-W/B,,,S Santa Fe&Las Flores
20721,Rancho Santa Fe Rd & Capalina Rd,33.152435,-117.197111,,20721,0,,1,N-S/B,,,Rcho Santa Fe & Capalina
20722,Paseo Delicas & El Montevideo,33.030024,-117.191100,,20722,0,,1,F-S/B,,,Paseo Delicas&El Montevideo
20723,Mission Rd & Crusaders Way,33.145786,-117.175114,,20723,0,,1,F-W/B,,,Mission&Crusaders Way
20725,Mission Rd & Woodward St,33.142407,-117.160992,,20725,0,,1,F-W/B,msnsmW,,Mission & Woodward
20727,Mission Rd & Mulberry Dr,33.144930,-117.150498,,20727,0,,1,F-W/B,,,Mission&Mulberry
20728,Mission Rd & Richland Rd,33.142340,-117.140434,,20728,0,,0,F-W/B,,,Mission & Richland
20730,Mission Rd & Avenida Chapala,33.136939,-117.131128,,20730,0,,1,N-W/B,,,Mission&Avda Chapala
20731,Mission Rd & Auto Park Wy,33.131079,-117.123406,,20731,0,,1,F-W/B,msnnoW,,Mission&Auto Park
20732,El Norte Pkwy & Bennett Av,33.152872,-117.121632,,20732,0,,1,F-W/B,,,El Norte&Bennett
20735,Country Club Ln & La Brea St,33.157684,-117.114048,,20735,0,,1,N-W/B,,,Country Club&La Brea
20736,Harmony Grove Rd & Princess Kyra Pl,33.110449,-117.113941,,20736,0,,2,F-W/B,,,Harmony Grove&Princess Kyra
20737,Country Club Ln & Nutmeg St,33.157407,-117.109477,,20737,0,,1,F-W/B,,,Country Club&Nutmeg
20738,El Norte Pkwy & Nutmeg St,33.147095,-117.106432,,20738,0,,2,N-W/B,,,El Norte&Nutmeg
20740,Valley Pkwy & Auto Park Wy,33.112715,-117.102480,,20740,0,,1,F-S/B,,,Vly&Auto Park
20741,Mission Av & Metcalf St,33.125347,-117.101866,,20741,0,,1,F-W/B,,,Mission&Metcalf
20742,Country Club Ln & Village Rd,33.159223,-117.100143,,20742,0,,1,F-W/B,,,Country Club&Vlge
20743,El Norte Pkwy & Iris Ln,33.144663,-117.098800,,20743,0,,1,F-W/B,,,El Norte&Iris
20744,Country Club Ln & Eastridge Ln,33.159635,-117.096453,,20744,0,,1,F-W/B,,,Country Club & Eastridge
20747,El Norte Pkwy & Seven Oaks Rd,33.146054,-117.102113,,20747,0,,1,N-W/B,,,El Norte&Seven Oaks
20748,Country Club Ln & Iris Ln,33.160647,-117.094117,,20748,0,,2,N-W/B,ccbroW,,Country Club & Iris
20752,El Norte Pkwy & Broadway,33.139749,-117.089977,,20752,0,,0,F-W/B,,,El Norte&Brdwy
20754,Valley Pkwy & Escondido Bl,33.120823,-117.085788,,20754,0,,1,F-W/B,,,Vly&Escondido
20757,Washington Av & Juniper St,33.127834,-117.081272,,20757,0,,1,N-W/B,,,Wshngtn&Juniper
20758,Mission Av & Gamble St,33.131726,-117.081312,,20758,0,,1,F-W/B,,,Mission&Gamble
20760,Mission Av & Fig St,33.132721,-117.078084,,20760,0,,0,F-W/B,msnfiW,,Mission&Fig
20761,Washington Av & Grape St,33.129203,-117.076852,,20761,0,,1,N-W/B,,,Wshngtn&Grape
20767,Grand Av & Date St,33.125943,-117.069779,,20767,0,,1,N-W/B,,,Grand&Date
20771,El Norte Pkwy & Rimrock Dr,33.149456,-117.066246,,20771,0,,1,F-W/B,,,El Norte&Rimrock
20776,Grand Av & Gayland St,33.132975,-117.052721,,20776,0,,1,F-W/B,,,Grand&Gayland
20777,Grand Av & Midway Dr,33.134118,-117.050284,,20777,0,,1,F-W/B,,,Grand&Midway
20782,Valley Pkwy & Citrus Av,33.140911,-117.044840,,20782,0,,1,F-W/B,,,Vly&Citrus
20783,Hwy 78 & Highgrove Dr,33.102977,-117.036713,,20783,0,,1,N-W/B,,,Hwy 78 & Highgrove
20784,Valley Pkwy & Bear Valley Pkwy,33.143401,-117.039430,,20784,0,,1,F-W/B,,,Vly&Bear Vly
20785,Valley Center Rd & Lilac Rd,33.222112,-117.036746,,20785,0,,1,F-S/B,,,Vly Ctr & Lilac
20786,Valley Pkwy & Las Brisas Dr,33.147936,-117.034367,,20786,0,,2,N-W/B,,,Vly&Las Brisas
20787,Valley Center Rd & Queensbridge Rd,33.228383,-116.996232,,20787,0,,1,F-W/B,,,Vly Ctr & Queensbridge
20788,Hwy 78 & Old Milky Way,33.088323,-116.991603,,20788,0,,2,F-N/B,,,Hwy 78 & Old Milky Way
20789,Valley Center Rd & Thundernut Ln,33.228291,-116.976100,,20789,0,,1,F-W/B,,,Vly Ctr&Thundernut
20790,Hwy 76 & Valley Center Rd,33.288655,-116.960808,,20790,0,,2,N-E/B,,,Hwy 76 & Vly Ctr
20791,Hwy 78 & Indian Oaks Rd,33.072209,-116.900740,,20791,0,,2,F-W/B,,,Hwy 78 & Indian Oaks
20792,Hwy 78 & Weekend Villa Rd,33.070270,-116.885106,,20792,0,,2,F-W/B,78wvr,,Hwy 78 & Weekend Villa
20799,Santa Fe Av & 5th St,33.216205,-117.392664,,20799,0,,1,F-S/B,,,Santa Fe&5th
20800,Vandegrift Bl & Commissary,33.227000,-117.391945,,20800,0,,1,N-S/B,,,Vandegrift&Commissary
20801,Santa Fe Av & Harbor Dr,33.207928,-117.390539,,20801,0,,0,N-S/B,,,Santa Fe&Harbor
20802,Santa Fe Av & Nautilus St,33.212586,-117.390969,,20802,0,,1,N-S/B,,,Santa Fe&Nautilus
20806,Coast Hwy & Surfrider Way,33.199493,-117.382689,,20806,0,,1,N-S/B,,,Coast Hwy & Surfrider Way
20820,Country Club Ln & Division St,33.197610,-117.365258,,20820,0,,1,N-S/B,osdsnS,,Country Club&Division
20821,Coast Hwy & Whaley St,33.176905,-117.363731,,20821,0,,1,N-S/B,,,Coast Hwy & Whaley
20823,Coast Hwy & Vista Way,33.172211,-117.359784,,20823,0,,0,N-S/B,,,Coast Hwy & Vista Way
20827,Carlsbad Bl & Pine Ave,33.155908,-117.350965,,20827,0,,2,N-S/B,,,Clsbd&Pinee
20828,Mesa Dr & Hoover St,33.204180,-117.350332,,20828,0,,1,N-E/B,,,Mesa&Hoover
20829,Carlsbad Bl & Maple Ave,33.152392,-117.349205,,20829,0,,1,N-S/B,,,Clsbd&Maplee
20831,Mesa Dr & Parnassus Cir,33.206620,-117.347018,,20831,0,,2,N-N/B,,,Mesa & Parnassus Cir
20833,Mesa Dr & Cottingham St,33.209117,-117.344848,,20833,0,,2,N-E/B,,,Mesa&Cottingham
20837,Fireside St & Heritage St,33.225607,-117.338469,,20837,0,,1,N-S/B,,,Fireside&Heritage
20838,Carlsbad Bl & Tierra Del Oro St,33.133634,-117.336417,,20838,0,,1,N-S/B,carcan,,Clsbd&Tierra Del Oro
20844,Vista Bella & Vista Oceana,33.216932,-117.330432,,20844,0,,1,N-S/B,visoce,,Vista Bella&Vista Oceana
20846,El Camino Real & Camino Town,33.185664,-117.328287,,20846,0,,0,N-S/B,,,El Cmo Real & Cmo Town
20847,Monroe St & Chestnut Av,33.161901,-117.326649,,20847,0,,1,N-S/B,monchS,,Monroe&Chestnut
20848,El Camino Real & Marron Rd,33.178204,-117.326830,,20848,0,,1,N-S/B,,,El Cmo Real&Marron
20851,Avenida De Anita & Avenida De Louisa,33.175283,-117.322229,,20851,0,,1,N-E/B,,,Avda De Anita&Avda De Louisa
20852,Avenida De Anita & Via Naranja,33.174634,-117.321249,,20852,0,,2,N-S/B,,,Avda De Anita&Via Naranja
20853,Avenida De Anita & Via Esparto,33.172702,-117.320670,,20853,0,,2,F-S/B,,,Avda De Anita&Via Esparto
20858,Carlsbad Bl & La Costa Av,33.084424,-117.310990,,20858,0,,2,N-S/B,,,Clsbd&La Costa
20861,De Luz Rd & Pusan,33.327166,-117.312102,,20861,0,,2,F-S/B,,,De Luz&Pusan
20862,De Luz Rd & Marine Dr,33.323628,-117.310960,,20862,0,,1,N-S/B,,,De Luz&Marine
20863,De Luz Rd & Vandegrift Bl,33.321005,-117.310374,,20863,0,,2,N-S/B,,,De Luz&Vandegrift
20864,Vandegrift Bl & 16th St (Area 14),33.313802,-117.309996,,20864,0,,1,N-S/B,van16S,,Vandegrift&16th (Area 14)
20867,Highway 101 & El Portal St,33.056099,-117.298058,,20867,0,,1,F-S/B,,,Highway 101 & El Portal
20872,Hwy 101 & H St,33.040950,-117.293300,,20872,0,,1,N-S/B,,,Hwy 101 & H
20874,Hwy 101 & K St,33.036524,-117.292332,,20874,0,,1,F-S/B,,,Hwy 101 & K
20877,El Camino Real & Jackspar Dr,33.146616,-117.289981,,20877,0,,1,N-S/B,,,El Cmo Real&Jackspar
20878,Thunder Dr & Vista Way,33.185093,-117.288298,,20878,0,,1,N-S/B,thuviS,,Thunder&Vista Way
20879,Thunder Dr & Altura Dr,33.192117,-117.288266,,20879,0,,2,F-S/B,,,Thunder&Altura
20880,Hwy 101 & San Elijo State Beach,33.024760,-117.285977,,20880,0,,1,M-Street-S/B,,,Hwy 101 & San Elijoate Bch
20881,Saxony Rd & Ezee St,33.059495,-117.285489,,20881,0,,1,M-Street-S/B,,,Saxony & Ezee
20890,Emerald Dr & Candia Ct,33.201871,-117.279572,,20890,0,,2,N-S/B,,,Emerald&Candia
20891,Sunset Dr & Sky Haven Ln,33.184209,-117.279028,,20891,0,,2,N-S/B,,,Sunset&Sky Haven
20892,N Santa Fe Av & Alamosa Park Dr,33.242746,-117.278354,,20892,0,,2,F-S/B,,,N Santa Fe&Alamosa Park
20895,Hwy 101 & Estrella St,32.994948,-117.272562,,20895,0,,1,N-S/B,,,Hwy 101 & Estrella
20897,Hwy 101 & Dahlia Dr,32.987841,-117.270872,,20897,0,,1,N-S/B,,,Hwy 101 & Dahlia
20898,Hwy 101 & Via De La Valle,32.980405,-117.269259,,20898,0,,2,N-S/B,,,Hwy 101 & V dl Valle
20899,Camino Del Mar & 25th St,32.969275,-117.268018,,20899,0,,1,F-S/B,,,Cmo Del Mar&25th
20900,El Camino Real & La Costa Av,33.084852,-117.268499,,20900,0,,1,F-S/B,,,El Cmo Real&La Costa
20901,El Camino Real & Arenal Rd,33.094933,-117.267864,,20901,0,,2,N-S/B,,,El Cmo Real&Arenal
20903,Camino Del Mar & 15th St,32.959836,-117.265439,,20903,0,,1,N-S/B,cdm15S,,Cmo Del Mar&15th
20904,El Camino Real & Aviara Pkwy,33.102746,-117.266771,,20904,0,,1,N-S/B,,,El Cmo Real&Aviara
20905,Camino Del Mar & 13th St,32.957370,-117.264661,,20905,0,,1,F-S/B,cdm13S,,Cmo Del Mar&13th
20906,El Camino Real & Levante St,33.078140,-117.265555,,20906,0,,1,F-S/B,,,El Cmo Real&Levante
20907,Camino Del Mar & 9th St,32.953629,-117.263213,,20907,0,,1,N-S/B,,,Cmo Del Mar&9th
20908,Camino Del Mar & 4th St,32.949149,-117.261518,,20908,0,,1,N-S/B,cdm4th,,Cmo Del Mar&4th
20910,El Camino Real & Encinitas Blvd,33.044644,-117.259785,,20910,0,,2,F-S/B,ecrenc,,El Cmo Real&Encinitasvd
20912,El Camino Real & Santa Fe Dr,33.039133,-117.259581,,20912,0,,1,N-S/B,,,El Cmo Real&Santa Fe
20916,Melrose Dr & Sunset Dr,33.179114,-117.253583,,20916,0,,1,N-S/B,,,Melrose&Sunset
20917,Melrose Dr & Branding Iron Cir,33.181793,-117.252628,,20917,0,,2,F-S/B,,,Melrose&Branding Iron Cir
20918,North Dr & East Dr,33.214102,-117.252354,,20918,0,,2,N-S/B,,,North&East
20919,N Santa Fe Av & Osborne St,33.234468,-117.253786,,20919,0,,2,M-Street-E/B,,,N Santa Fe&Osborne
20926,N Santa Fe Av & Pond Pl,33.224305,-117.246513,,20926,0,,1,F-S/B,,,N Santa Fe&Pond
20928,N Santa Fe Av & Orange St,33.205271,-117.245127,,20928,0,,2,N-S/B,,,N Santa Fe&Orange
20929,N Santa Fe Av & East Dr,33.214275,-117.245042,,20929,0,,1,N-S/B,,,N Santa Fe&East
20931,S Mission Rd & Winterhaven Rd,33.346132,-117.242385,,20931,0,,1,N-S/B,,,S Mission&Winterhaven
20932,Melrose Dr & Green Oak Rd,33.155512,-117.241872,,20932,0,,1,N-S/B,,,Melrose&Green Oak
20933,S Mission Rd & Big Oak Ranch Rd,33.338546,-117.238352,,20933,0,,1,F-S/B,,,S Mission&Big Oak Ranch
20934,Rancho Santa Fe Rd & 9th St,33.048229,-117.233968,,20934,0,,2,N-S/B,rsfcdS,,Rcho Santa Fe&9th
20937,Anza Av & Bobier Dr,33.219717,-117.233778,,20937,0,,1,N-S/B,,,Anza&Bobier
20938,S Mission Rd & Hellers Bend (North),33.324208,-117.235281,,20938,0,,1,N-S/B,,,S Mission & Hellers Bend (North)
20939,Anza Av & Monterey Ln,33.221626,-117.232746,,20939,0,,1,N-S/B,,,Anza&Monterey
20941,E Vista Way & Hutchison St,33.250302,-117.230342,,20941,0,,1,F-S/B,evwhuS,,E Vista Way&Hutchison
20942,E Vista Way & E Bobier Dr,33.216647,-117.226760,,20942,0,,1,F-S/B,,,E Vista Way&E Bobier
20943,E Vista Way & Arcadia Av,33.226019,-117.226283,,20943,0,,1,N-S/B,evwarS,,E Vista Way&Arcadia
20944,E Vista Way & Osborne St,33.238540,-117.226351,,20944,0,,1,N-S/B,,,E Vista Way&Osborne
20945,La Mirada Dr & Commerce Wy,33.150407,-117.222668,,20945,0,,2,N-E/B,,,La Mirada&Commerce
20946,Oak Dr & Foothill Dr,33.216685,-117.221913,,20946,0,,1,N-S/B,,,Oak&Foothill
20947,Rancho Santa Fe Rd & Somerset Pl,33.128981,-117.211233,,20947,0,,1,N-S/B,,,Rcho Santa Fe & Somerset
20948,Rancho Santa Fe Rd & 1st St,33.137123,-117.205028,,20948,0,,1,N-S/B,,,Rcho Santa Fe&1st
20949,Rancho Santa Fe Rd & Linda Vista Dr,33.140732,-117.203230,,20949,0,,2,N-S/B,,,Rcho Santa Fe&L Vsta
20962,Escondido Bl & Mission Av,33.128255,-117.089140,,20962,0,,1,F-S/B,,,Escondido&Mission
20964,Broadway & Lincoln Av,33.133972,-117.087080,,20964,0,,0,N-S/B,,,Brdwy&Lincoln
20967,Pala Mission Rd & Portillo Rd,33.364953,-117.084209,,20967,0,,1,F-W/B,,,Pala Mission & Portillo
20971,Escondido Bl & 15th Av,33.107400,-117.075128,,20971,0,,1,F-S/B,,,Escondido&15th
20972,Escondido Bl & Felicita Av,33.105210,-117.073658,,20972,0,,1,N-S/B,escfel,,Escondido&Felicita
20976,Hwy 76 & Lilac Rd,33.364021,-117.062397,,20976,0,,2,F-E/B,,,Hwy 76 & Lilac
20978,Bear Valley Pkwy & Kit Carson Park,33.078231,-117.057425,,20978,0,,1,N-S/B,bvpkcp,,Bear Vly&Kit Carson Park
20980,Citrus Av & Citron Pl,33.133080,-117.039209,,20980,0,,2,N-S/B,,,Citrus & Citron
20981,Hwy 78 & San Pasqual Rd,33.097807,-117.020663,,20981,0,,1,F-E/B,,,Hwy 78 & San Pasqual
20982,Hwy 76 & El Senedero Dr,33.335874,-117.005488,,20982,0,,2,N-S/B,,,Hwy 76 & El Senedero
20983,Hwy 76 & Pauma Valley Dr,33.302974,-116.978077,,20983,0,,2,N-S/B,,,Hwy 76 & Pauma Vly
20991,Stuart Mesa & Vaughn,33.252679,-117.404834,,20991,0,,2,F-N/B,,,Stuart Mesa&Vaughn
20992,Stuart Mesa & Bloom,33.249042,-117.403107,,20992,0,,2,F-S/B,,,Stuart Mesa&Bloom
20996,Coast Hwy & Civic Center Dr,33.197286,-117.380820,,20996,0,,1,F-S/B,,,Coast Hwy & Civic Ctr
20999,Coast Hwy & Topeka St,33.193733,-117.377830,,20999,0,,1,F-S/B,,,Coast Hwy & Topeka
21003,Coast Hwy & Washington Av,33.190530,-117.375124,,21003,0,,1,F-S/B,,,Coast Hwy & Wshngtn
21005,Coast Hwy & Wisconsin Av,33.188381,-117.373356,,21005,0,,1,F-S/B,,,Coast Hwy & Wisconsin
21008,Coast Hwy & West St,33.186416,-117.371734,,21008,0,,1,F-S/B,,,Coast Hwy & West
21013,Coast Hwy & Oceanside Blvd,33.183350,-117.369212,,21013,0,,1,F-S/B,coaosS,,Coast Hwy & Oceansidevd
21015,Coast Hwy & Cassidy St,33.174859,-117.362015,,21015,0,,1,F-S/B,,,Coast Hwy & Cassidy
21019,Mesa Dr & Mission Av,33.208108,-117.358652,,21019,0,,1,F-S/B,,,Mesa&Mission
21023,Mesa Dr & Crouch St,33.205741,-117.353723,,21023,0,,1,F-S/B,,,Mesa&Crouch
21024,9th St & Vandegrift Bl,33.295368,-117.353596,,21024,0,,0,F-S/B,,,9th&Vandegrift
21031,Mesa Dr & Barnwell St,33.204694,-117.348050,,21031,0,,2,F-N/B,,,Mesa&Barnwell
21032,Carlsbad Bl & Tamarack Av,33.147366,-117.345393,,21032,0,,1,F-S/B,,,Clsbd&Tamarack
21033,Harding St & Carlsbad Village Dr,33.161521,-117.344381,,21033,0,,2,F-S/B,,,Harding&Clsbd Vlge
21038,Harding St & Pine Av,33.159434,-117.342688,,21038,0,,1,F-S/B,,,Harding&Pine
21042,Marron Rd & Jefferson St,33.177515,-117.340350,,21042,0,,2,F-S/B,,,Marron&Jefferson
21043,Pio Pico Dr & Chestnut Av,33.157698,-117.339080,,21043,0,,2,F-S/B,,,Pio Pico&Chestnut
21044,Pio Pico Dr & Magnolia Av,33.154866,-117.337591,,21044,0,,2,F-S/B,,,Pio Pico&Magnolia
21046,Fireside St & Parkside Dr,33.227742,-117.338184,,21046,0,,1,F-S/B,,,Fireside&Parkside
21050,Carlsbad Bl & Cerezo Dr,33.128419,-117.332693,,21050,0,,2,F-S/B,,,Clsbd&Cerezo
21051,El Camino Real & Mesa Dr,33.208363,-117.333615,,21051,0,,1,F-S/B,,,El Cmo Real&Mesa
21053,El Camino Real & Oceanside Bl,33.200819,-117.331779,,21053,0,,1,F-S/B,,,El Cmo Real&Oceanside
21054,Carlsbad Bl & Solamar Dr,33.120896,-117.327305,,21054,0,,0,N-S/B,,,Clsbd&Solamar
21055,El Camino Real & Los Arbolitos Bl,33.227731,-117.331245,,21055,0,,1,F-S/B,ecrmiS,,El Cmo Real&Los Arbolitos
21058,El Camino Real & Mission Av,33.225350,-117.331274,,21058,0,,1,F-S/B,misecS,,El Cmo Real&Mission
21059,El Camino Real & Basel St,33.190631,-117.328263,,21059,0,,2,F-S/B,,,El Cmo Real&Basel
21060,El Camino Real & Fire Mountain Dr,33.192256,-117.328221,,21060,0,,1,F-S/B,,,El Cmo Real&Fire Mtn
21066,El Camino Real & Hosp Way,33.174733,-117.325344,,21066,0,,1,F-S/B,,,El Cmo Real&Hosp Way
21067,Douglas Dr & El Camino Real,33.229851,-117.326191,,21067,0,,1,F-S/B,,,Douglas&El Cmo Real
21068,El Camino Real & Carlsbad Village Dr,33.171425,-117.322674,,21068,0,,1,F-S/B,,,El Cmo Real&Clsbd Vlge
21070,Avenida De Anita & Flower Fields Way,33.177031,-117.322686,,21070,0,,2,F-S/B,,,Avda De Anita&Flower Fields Way
21071,Douglas Dr & N River Rd,33.244894,-117.322785,,21071,0,,1,F-S/B,dounrW,,Douglas&N River
21072,El Camino Real & Chestnut Av,33.163267,-117.319798,,21072,0,,1,F-S/B,,,El Cmo Real&Chestnut
21073,Rancho Del Oro Dr & San Ramon Dr,33.222142,-117.320378,,21073,0,,2,F-S/B,,,Rcho Del Oro & San Ramon
21074,Carlsbad Bl & Poinsettia Ln,33.101378,-117.318157,,21074,0,,1,F-S/B,carpoS,,Clsbd&Poinsettia
21076,Rancho Del Oro Dr & Oregano Way,33.217677,-117.319274,,21076,0,,1,N-S/B,echsS,,Rcho Del Oro & Oregano Way
21078,El Camino Real & Tamarack Av,33.153614,-117.312101,,21078,0,,1,F-E/B,,,El Cmo Real&Tamarack
21079,Vandegrift Bl & 11th St,33.299424,-117.313258,,21079,0,,1,F-S/B,,,Vandegrift&11th
21080,Vandegrift Bl & 4th St,33.293749,-117.312591,,21080,0,,1,F-S/B,,,Vandegrift&4th
21082,Vandegrift Bl & Mcx Rd,33.302266,-117.312648,,21082,0,,1,N-S/B,,,Vandegrift&Mcx
21083,El Camino Real & Kelly Dr,33.152087,-117.309870,,21083,0,,1,F-E/B,,,El Cmo Real&Kelly
21085,Hwy 101 & La Costa Av,33.081404,-117.308163,,21085,0,,1,M-Street-S/B,,,Hwy 101 & La Costa
21086,Rancho Del Oro Rd & Las Tiendas Way,33.183793,-117.311050,,21086,0,,1,F-S/B,,,Rcho Del Oro & Las Tiendas Way
21087,Vandegrift Bl & 14th St,33.307231,-117.311596,,21087,0,,1,F-S/B,,,Vandegrift&14th
21090,Rancho Del Oro Dr & Tournament Dr,33.186579,-117.309181,,21090,0,,1,F-S/B,,,Rcho Del Oro & Tournament
21091,Rancho Del Oro Rd & Trieste Way,33.189248,-117.308571,,21091,0,,1,F-S/B,,,Rcho Del Oro & Trieste Way
21093,Hwy 101 & Grandview St,33.075877,-117.306222,,21093,0,,1,F-S/B,,,Hwy 101 & Grandview
21098,Hwy 101 & Phoebe St,33.069046,-117.303944,,21098,0,,1,F-S/B,,,Hwy 101 & Phoebe
21102,Hwy 101 & Leucadia Blvd,33.063985,-117.302270,,21102,0,,1,F-S/B,,,Hwy 101 & Leucadiavd
21108,Vandegrift Bl & Barnett Cir,33.284752,-117.302105,,21108,0,,1,F-S/B,,,Vandegrift&Barnett Cir
21109,N River Rd & Redondo Dr,33.249103,-117.301492,,21109,0,,1,F-S/B,,,N River&Redondo
21114,Vandegrift Bl & Gold Dr,33.257830,-117.299025,,21114,0,,1,F-S/B,vangol,,Vandegrift&Gold
21115,Vandergrift Blvd & Parker St,33.261075,-117.298400,,21115,0,,1,F-S/B,vandep,,Vandergrift& Parker
21116,Vandergrift Blvd & Castellano Dr,33.264428,-117.297804,,21116,0,,1,F-S/B,,,Vandergrift& Castellano
21119,Vandegrift Bl & Douglas Dr,33.273012,-117.296290,,21119,0,,1,F-S/B,vadouS,,Vandegrift&Douglas
21120,College Blvd & Adams St,33.248971,-117.294961,,21120,0,,1,F-S/B,,,Coll& Adams
21123,Vulcan Av & J St,33.038545,-117.291676,,21123,0,,2,F-S/B,,,Vulcan&J
21124,College Blvd & Via Cupeno,33.246292,-117.290865,,21124,0,,1,F-S/B,,,Coll& Via Cupeno
21125,Thunder Dr & College Bl,33.198946,-117.288260,,21125,0,,1,F-S/B,,,Thunder&Coll
21126,Thunder Dr & Marvin St,33.194668,-117.288279,,21126,0,,2,F-S/B,,,Thunder&Marvin
21127,Saxony Rd & Saxony Ln,33.052379,-117.285655,,21127,0,,1,F-S/B,,,Saxony&Saxony
21128,El Camino Real & Sunny Creek Rd,33.144605,-117.286051,,21128,0,,1,F-E/B,,,El Cmo Real&Sunny Creek
21129,Saxony Rd & Leucadia Bl,33.064586,-117.285224,,21129,0,,1,F-S/B,saxleS,,Saxony&Leucadia
21131,Saxony Rd & Puebla St,33.061684,-117.285374,,21131,0,,1,N-S/B,,,Saxony&Puebla
21133,Sky Haven Ln & Sundown Ln,33.180351,-117.280156,,21133,0,,1,F-S/B,,,Sky Haven&Sundown
21134,Sky Haven Ln & Zenith Ln,33.178526,-117.280183,,21134,0,,1,F-S/B,,,Sky Haven&Zenith
21135,Emerald Dr & Hacienda Dr,33.186218,-117.279636,,21135,0,,1,F-S/B,,,Emerald&Hacienda
21141,Hwy 101 & Solana Vista Dr,32.997862,-117.274040,,21141,0,,1,F-S/B,,,Hwy 101 & Solana Vista
21142,Yarrow Dr & Palomar Airport Rd,33.124855,-117.275042,,21142,0,,2,F-S/B,paryaS,,Yarrow&Palomar Airport
21144,Hwy 101 & Plaza St,32.991360,-117.271692,,21144,0,,1,F-S/B,101loS,,Hwy 101 & Pza
21145,Camino Del Mar & 29th St,32.972376,-117.268658,,21145,0,,1,N-S/B,,,Cmo Del Mar&29th
21147,El Camino Real & Dove Ln,33.104981,-117.267149,,21147,0,,2,F-S/B,,,El Cmo Real&Dove
21149,El Camino Real & Town Center Dr,33.064595,-117.262622,,21149,0,,1,F-S/B,,,El Cmo Real&Town Ctr
21150,N Torrey Pines Rd & Torrey Pines State Beach,32.935782,-117.260929,,21150,0,,1,M-Special_Loc,,,N Try Pines & Try Pinesate Bch
21151,El Camino Real & Mountain Vista Dr,33.051497,-117.260948,,21151,0,,1,F-S/B,,,El Cmo Real&Mtn Vista
21160,Melrose Dr & Melrose Way,33.185885,-117.253489,,21160,0,,1,N-S/B,,,Melrose&Melrose Way
21161,S Mission Rd & Clemmens Ln,33.368699,-117.250952,,21161,0,,1,F-S/B,,,S Mission&Clemmens
21164,S Mission Rd & O' Hearn Dr,33.365772,-117.249943,,21164,0,,1,N-S/B,,,S Mission&O' Hearn
21165,Melrose Dr & Buena Vista Dr,33.166667,-117.247238,,21165,0,,1,F-S/B,,,Melrose&Buena Vista
21166,S Mission Rd & Rocky Crest Rd,33.362569,-117.249439,,21166,0,,1,N-S/B,,,S Mission&Rocky Crest
21170,Melrose Dr & Longhorn Dr,33.163662,-117.244500,,21170,0,,1,F-S/B,melloS,,Melrose&Longhorn
21171,N Santa Fe Av & California Av,33.207125,-117.245112,,21171,0,,1,F-S/B,,,N Santa Fe&California
21173,N Santa Fe Av & Los Angeles Dr,33.211115,-117.245085,,21173,0,,1,F-S/B,,,N Santa Fe&Los Angeles
21174,N Santa Fe Av & Bobier Dr,33.220730,-117.245017,,21174,0,,1,F-S/B,nsfboS,,N Santa Fe&Bobier
21175,N Santa Fe Av & Indian Rock Rd,33.217192,-117.245023,,21175,0,,1,F-S/B,,,N Santa Fe&Indian Rock
21177,Melrose Dr & Dawson Dr,33.149826,-117.242251,,21177,0,,2,F-S/B,,,Melrose & Dawson
21178,Melrose Dr & Shadowridge Dr,33.161112,-117.242115,,21178,0,,1,F-S/B,,,Melrose&Shadowridge
21180,Melrose Dr & Sycamore Av,33.144864,-117.241536,,21180,0,,1,F-S/B,,,Melrose&Sycamore
21181,Rancho Santa Fe Rd & Calle Barcelona,33.071883,-117.243146,,21181,0,,1,F-W/B,,,Rcho Santa Fe&Calle Barcelona
21183,Rancho Santa Fe Rd & Olive Crest Dr,33.057537,-117.235572,,21183,0,,2,F-S/B,,,Rcho Santa Fe&Olive Crest
21184,Hwy 76 & North River Rd,33.266976,-117.237136,,21184,0,,1,N-S/B,,,Hwy 76 & NRiver
21185,S Mission Rd & Green Canyon Rd,33.334647,-117.236575,,21185,0,,1,N-S/B,,,S Mission&Green Cyn
21187,Camino De Los Coches & Via Callendo,33.077986,-117.230036,,21187,0,,1,F-S/B,,,Cmo De Los Coches&Via Callendo
21188,Business Park Dr & Liberty Way,33.137578,-117.230039,,21188,0,,2,F-S/B,,,Business Park&Liberty Way
21191,E Vista Way & Oak Dr,33.213141,-117.228842,,21191,0,,1,F-S/B,,,E Vista Way&Oak
21192,S Mission Rd & 4719,33.305837,-117.227333,,21192,0,,1,M-Street-S/B,,,S Mission&4719
21193,Rancho Santa Fe Rd & Melrose Dr,33.106584,-117.225740,,21193,0,,1,F-W/B,,,Rcho Santa Fe&Melrose
21194,E Vista Way & Strawberry Hill Ln,33.243532,-117.226593,,21194,0,,2,F-S/B,,,E Vista Way&Strawberry Hill
21197,E Vista Way & Old Taylor St,33.230034,-117.226298,,21197,0,,1,N-S/B,,,E Vista Way&Old Taylor
21198,Hwy 76 & Olive Hill Rd,33.288546,-117.225837,,21198,0,,1,F-S/B,miscam,,Hwy 76 & Olive Hill
21199,S Mission Rd & Hwy 76,33.294879,-117.222977,,21199,0,,1,N-S/B,mis76S,,S Mission & Hwy 76
21201,Oak Dr & Monte Mar Rd,33.218347,-117.221921,,21201,0,,1,F-S/B,,,Oak&Monte Mar
21202,Oak Dr & Palomar Pl,33.222695,-117.221923,,21202,0,,1,F-S/B,,,Oak&Palomar
21203,Sycamore Av & Watson Way,33.161114,-117.219881,,21203,0,,2,F-S/B,,,Sycamore&Watson Way
21204,Rancho Santa Fe Rd & Lake Ridge Rd,33.122200,-117.218896,,21204,0,,2,F-S/B,,,Rcho Santa Fe&Lake Ridge
21205,La Mirada Dr & Ash St,33.148923,-117.218350,,21205,0,,2,F-E/B,,,La Mirada&Ash
21206,Sycamore Av & Shadowridge Dr,33.164204,-117.217280,,21206,0,,1,F-S/B,sycsha,,Sycamore & Shadowridge
21210,Rancho Santa Fe Rd & San Marcos Bl,33.130004,-117.210106,,21210,0,,1,F-S/B,rsfsmS,,Rcho Santa Fe&San Marcos
21213,Rancho Santa Fe Rd & Descanso Av,33.148180,-117.199453,,21213,0,,1,F-S/B,,,Rcho Santa Fe&Descanso
21232,Quince St & Mission Av,33.127113,-117.093245,,21232,0,,2,F-S/B,,,Quince&Mission
21233,Broadway & Village Rd,33.157888,-117.092549,,21233,0,,1,F-S/B,ccbroE,,Brdwy&Vlge
21234,Quince St & Washington Av,33.124854,-117.092271,,21234,0,,1,N-S/B,,,Quince&Wshngtn
21236,Broadway & Vista Av,33.153046,-117.091794,,21236,0,,1,F-S/B,,,Brdwy&Vista
21237,Broadway & Leslie Ln,33.148205,-117.090985,,21237,0,,1,F-S/B,,,Brdwy&Leslie
21238,Quince St & Norlak Av,33.120804,-117.090073,,21238,0,,1,F-S/B,,,Quince&Norlak
21239,Broadway & Bud Quade Way,33.143297,-117.090196,,21239,0,,1,F-S/B,,,Brdwy&Bud Quade Way
21240,Broadway & El Norte Pkwy,33.139000,-117.089322,,21240,0,,1,F-S/B,brenpS,,Brdwy&El Norte
21241,Broadway & 1125,33.136294,-117.088093,,21241,0,,1,M-Street-S/B,,,Brdwy&1125
21246,Broadway & Washington Av,33.126507,-117.083796,,21246,0,,1,F-S/B,wasbro,,Brdwy&Wshngtn
21247,Escondido Bl & 2nd Av,33.119088,-117.083410,,21247,0,,1,F-S/B,2ndesc,,Escondido&2nd
21249,Escondido Bl & 6th Av,33.115674,-117.080993,,21249,0,,1,F-S/B,,,Escondido&6th
21250,Escondido Bl & 9th Av,33.112687,-117.078881,,21250,0,,1,F-S/B,esc9th,,Escondido&9th
21254,Escondido Bl & 13th Av,33.109210,-117.076409,,21254,0,,1,F-S/B,esc13,,Escondido&13th
21271,Bear Valley Pkwy & Las Palmas Av,33.085735,-117.057302,,21271,0,,1,F-S/B,,,Bear Vly&Las Palmas
21273,Midway Dr & Mission Av,33.144295,-117.056271,,21273,0,,1,F-S/B,,,Midway&Mission
21274,Midway Dr & Washington Av,33.141107,-117.053687,,21274,0,,2,F-S/B,wasmiE,,Midway&Wshngtn
21277,Citrus Av & Bear Valley Pkwy,33.136730,-117.041563,,21277,0,,1,F-S/B,,,Citrus&Bear Vly
21278,Hwy 78 & Old San Pasqual Rd,33.102711,-117.036606,,21278,0,,1,N-E/B,,,Hwy 78 & Old San Pasqual
21280,Hwy 76 & Adams Dr,33.340235,-117.012254,,21280,0,,2,F-E/B,,,Hwy 76 & Adams
21281,Hwy 76 & Pauma Reservation Rd,33.329219,-117.000611,,21281,0,,1,F-S/B,,,Hwy 76 & Pauma Reservation
21282,Hwy 76 & Cole Grade Rd,33.318523,-116.992722,,21282,0,,2,F-S/B,,,Hwy 76 & Cole Grade
21283,Hwy 78 & Horizon View Dr,33.074220,-116.902831,,21283,0,,2,F-S/B,,,Hwy 78 & Horizon View
21284,Hwy 78 & Cedar St,33.054502,-116.871477,,21284,0,,2,F-S/B,,,Hwy 78 & Cedar
21285,Hwy 78 & Olive St,33.048091,-116.871206,,21285,0,,1,N-S/B,,,Hwy 78 & Olive
21286,Broadway & Sherman Pl,33.124120,-117.082687,,21286,0,,1,F-S/B,,,Brdwy & Sherman
21291,Basilone Rd & San Juan St,33.394164,-117.514206,,21291,0,,1,N-W/B,cponoN,,Basilone&San Juan
21292,Las Pulgas Rd & Bldg 43260 (Gas Station),33.341259,-117.410716,,21292,0,,2,N-N/B,,,Las Pulgas&Bldg 43260 (Gas Sta)
21309,Coast Hwy & Oceanside Blvd,33.183462,-117.368994,,21309,0,,1,N-N/B,coaosN,,Coast Hwy & Oceansidevd
21311,Coast Hwy & Morse St,33.177699,-117.364126,,21311,0,,1,N-N/B,,,Coast Hwy & Morse
21317,Mesa Dr & Crouch St,33.205790,-117.353534,,21317,0,,1,N-W/B,,,Mesa&Crouch
21319,9th St & Vandegrift Bl,33.295451,-117.353472,,21319,0,,1,N-N/B,,,9th&Vandegrift
21324,10th St & Bldg 22114,33.294037,-117.350224,,21324,0,,2,N-N/B,,,10th&Bldg 22114
21334,Pio Pico Dr & Chestnut Av,33.157740,-117.338986,,21334,0,,2,N-N/B,,,Pio Pico&Chestnut
21335,Fireside St & Heritage St,33.225190,-117.338110,,21335,0,,1,N-N/B,,,Fireside&Heritage
21337,Fireside St & Los Arbolitos Bl,33.228467,-117.337078,,21337,0,,1,N-N/B,,,Fireside&Los Arbolitos
21343,Carlsbad Bl & Solamar Dr,33.120136,-117.326429,,21343,0,,1,N-N/B,,,Clsbd&Solamar
21352,El Camino Real & Hosp Way,33.173960,-117.324140,,21352,0,,1,N-N/B,,,El Cmo Real&Hosp Way
21353,Santa Margarita & Forrestal Rd,33.334045,-117.327648,,21353,0,,1,N-N/B,navhos,,Santa Margarita&Forrestal
21355,Avenida De Anita & Flower Fields Way,33.176976,-117.322547,,21355,0,,2,N-N/B,,,Avda De Anita&Flower Fields Way
21356,Douglas Dr & N River Rd,33.244819,-117.322409,,21356,0,,1,N-N/B,dounrE,,Douglas&N River
21357,Avenida De Anita & Via Vera,33.173398,-117.320575,,21357,0,,2,F-N/B,,,Avda De Anita&Via Vera
21358,Rancho Del Oro Dr & San Ramon Dr,33.222116,-117.320107,,21358,0,,2,N-N/B,,,Rcho Del Oro & San Ramon
21359,Rancho Del Oro Dr & Via Rancho Rd,33.218974,-117.318992,,21359,0,,1,N-N/B,echsN,,Rcho Del Oro & Via Rcho
21365,Vandegrift Bl & Mcx Rd,33.301722,-117.312599,,21365,0,,1,F-N/B,van13N,,Vandegrift&Mcx
21366,Hwy 101 & La Costa Av,33.081170,-117.307742,,21366,0,,2,N-N/B,,,Hwy 101 & La Costa
21368,Rancho Del Oro Rd & Tournament Dr,33.186495,-117.308907,,21368,0,,1,N-N/B,,,Rcho Del Oro & Tournament
21372,Vandegrift Bl & Barnett Cir,33.284951,-117.301963,,21372,0,,2,N-N/B,,,Vandegrift&Barnett Cir
21373,Hwy 101 & El Portal St,33.057017,-117.298357,,21373,0,,2,F-N/B,,,Hwy 101 & El Portal
21374,Vandegrift Bl & Castellano Way,33.265256,-117.297255,,21374,0,,1,F-N/B,,,Vandegrift&Castellano Way
21375,Vandegrift Bl & Douglas Dr,33.274107,-117.295940,,21375,0,,1,F-N/B,vadouN,,Vandegrift&Douglas
21378,Vulcan Av & J St,33.038565,-117.291542,,21378,0,,1,F-N/B,,,Vulcan&J
21380,Thunder Dr & Waring Rd,33.187257,-117.288183,,21380,0,,1,N-N/B,,,Thunder&Waring
21381,Thunder Dr & College Bl,33.198835,-117.288095,,21381,0,,1,N-N/B,,,Thunder&Coll
21382,Thunder Dr & Westwood Rd,33.192486,-117.288108,,21382,0,,1,F-N/B,,,Thunder&Westwood
21384,Thunder Dr & Jonathon St,33.196779,-117.288100,,21384,0,,1,N-N/B,,,Thunder & Jonathon
21385,Saxony Rd & Leucadia Bl,33.064703,-117.285099,,21385,0,,1,N-N/B,saxleN,,Saxony&Leucadia
21394,Yarrow Dr & Corte Dela Pina,33.122305,-117.273676,,21394,0,,2,N-N/B,,,Yarrow&Corte Dela Pina
21395,El Camino Real & La Costa Av,33.084905,-117.268139,,21395,0,,2,N-N/B,ecrlca,,El Cmo Real&La Costa
21396,Camino Del Mar & 13th St,32.957426,-117.264349,,21396,0,,1,N-N/B,cdm13N,,Cmo Del Mar&13th
21399,Camino Del Mar & Del Mar Heights Rd,32.947888,-117.260722,,21399,0,,1,N-N/B,cdm4th,,Cmo Del Mar&Del Mar Heights
21401,Stevens Av & Genevieve St,32.989169,-117.260412,,21401,0,,2,N-N/B,,,Stevens&Genevieve
21402,El Camino Real & 317,33.054702,-117.261649,,21402,0,,1,F-N/B,,,El Cmo Real & 317
21403,El Camino Real & Santa Fe Dr,33.039112,-117.259169,,21403,0,,1,F-N/B,,,El Cmo Real&Santa Fe
21406,Melrose Dr & Melrose Pl,33.209778,-117.255237,,21406,0,,1,F-N/B,,,Melrose&Melrose
21407,Melrose Dr & Cocapah St,33.207175,-117.254534,,21407,0,,2,N-N/B,,,Melrose&Cocapah
21409,Melrose Dr & County Complex,33.189719,-117.253735,,21409,0,,2,N-N/B,vcourt,,Melrose&County Complex
21415,N Santa Fe Av & Taylor St,33.229487,-117.248145,,21415,0,,2,F-N/B,,,N Santa Fe&Taylor
21419,N Santa Fe Av & Cananea St,33.217088,-117.244747,,21419,0,,1,N-N/B,,,N Santa Fe&Cananea
21421,Melrose Dr & Shadowridge Dr,33.160931,-117.241710,,21421,0,,1,N-N/B,,,Melrose&Shadowridge
21424,Hwy 76 & North River Rd,33.267735,-117.236613,,21424,0,,1,F-N/B,,,Hwy 76 & NRiver
21426,Rancho Santa Fe Rd & El Camino Del Norte,33.050290,-117.233108,,21426,0,,1,F-N/B,rsfcdN,,Rcho Santa Fe&El Cmo Del Norte
21428,S Mission Rd & Baja Mission Rd,33.312572,-117.229836,,21428,0,,1,N-N/B,,,S Mission&Baja Mission
21429,E Vista Way & Oak Dr,33.212989,-117.228578,,21429,0,,1,N-N/B,,,E Vista Way&Oak
21430,E Vista Way & Strawberry Hill Ln,33.244177,-117.226710,,21430,0,,2,N-N/B,,,E Vista Way&Strawberry Hill
21431,E Vista Way & Foothill Dr,33.218497,-117.225985,,21431,0,,1,F-N/B,,,E Vista Way&Foothill
21432,S Mission Rd & Hwy 76,33.295362,-117.222986,,21432,0,,1,F-N/B,mis76N,,S Mission & Hwy 76
21438,Rancho Santa Fe Rd & Descanso Av,33.148212,-117.199109,,21438,0,,1,F-N/B,,,Rcho Santa Fe&Descanso
21444,Broadway & Sundance MHP,33.158724,-117.092432,,21444,0,,1,F-N/B,,,Brdwy & Sundance MHP
21445,Quince St & Washington Av,33.125275,-117.092201,,21445,0,,1,N-N/B,,,Quince&Wshngtn
21446,Escondido Bl & Mission Av,33.128597,-117.089046,,21446,0,,1,N-N/B,,,Escondido&Mission
21450,Escondido Bl & 2nd Av,33.118840,-117.083087,,21450,0,,1,N-N/B,,,Escondido&2nd
21453,Escondido Bl & 15th Av,33.107660,-117.075166,,21453,0,,1,N-N/B,,,Escondido&15th
21455,Pala Mission Rd & Temecula Rd,33.365286,-117.074888,,21455,0,,1,N-W/B,,,Pala Mission & Temecula
21457,Sunset Dr & Escondido Bl,33.101188,-117.070214,,21457,0,,0,N-W/B,,,Sunset&Escondido
21464,Hwy 76 & Rhonda Ln,33.335066,-117.004643,,21464,0,,2,N-N/B,,,Hwy 76 & Rhonda
21465,Hwy 76 & Pauma Reservation Rd,33.328755,-117.000051,,21465,0,,2,N-N/B,,,Hwy 76 & Pauma Reservation
21466,Hwy 76 & Cole Grade Rd,33.319190,-116.992950,,21466,0,,2,F-N/B,,,Hwy 76 & Cole Grade
21467,Hwy 78 & Cedar St,33.054702,-116.871331,,21467,0,,2,N-N/B,,,Hwy 78 & Cedar
21468,Hwy 78 & Olive St,33.048122,-116.871046,,21468,0,,1,F-N/B,,,Hwy 78 & Olive
21471,Basilone Rd & Naval Hosp Clinic,33.392107,-117.509770,,21471,0,,2,F-W/B,,,Basilone&Naval Hosp Clinic
21472,Basilone Rd & Bldg 53372 (Horno Em Club),33.378956,-117.481622,,21472,0,,2,F-N/B,,,Basilone&Bldg 53372 (Horno Em Club)
21473,Basilone Rd & Bldg 53505 (Horno),33.376925,-117.477142,,21473,0,,2,F-W/B,,,Basilone&Bldg 53505 (Horno)
21474,Stuart Mesa & Mitchell,33.251479,-117.404352,,21474,0,,1,N-S/B,,,Stuart Mesa&Mitchell
21475,Stuart Mesa & Bloom,33.249859,-117.403355,,21475,0,,2,F-N/B,,,Stuart Mesa&Bloom
21477,Santa Fe Av & 5th St,33.216731,-117.392910,,21477,0,,1,N-N/B,,,Santa Fe&5th
21478,Santa Fe Av & Nautilus St,33.212681,-117.390804,,21478,0,,0,F-N/B,,,Santa Fe&Nautilus
21480,Stuart Mesa & Vandegrift Bl,33.233466,-117.389591,,21480,0,,0,F-N/B,,,Stuart Mesa&Vandegrift
21483,Coast Hwy & Surfrider Way,33.199551,-117.382482,,21483,0,,1,F-N/B,,,Coast Hwy & Surfrider Way
21489,Coast Hwy & Mission Av,33.196274,-117.379740,,21489,0,,1,F-N/B,,,Coast Hwy & Mission
21491,Coast Hwy & Michigan Av,33.193094,-117.377053,,21491,0,,1,F-N/B,,,Coast Hwy & Michigan
21494,Coast Hwy & Washington Av,33.190989,-117.375264,,21494,0,,1,F-N/B,,,Coast Hwy & Wshngtn
21496,Coast Hwy & Wisconsin Av,33.188996,-117.373587,,21496,0,,1,F-N/B,,,Coast Hwy & Wisconsin
21497,Coast Hwy & West St,33.186977,-117.371962,,21497,0,,1,F-N/B,,,Coast Hwy & West
21504,Coast Hwy & Cassidy St,33.175557,-117.362352,,21504,0,,1,F-N/B,,,Coast Hwy & Cassidy
21505,Coast Hwy & Vista Way,33.172727,-117.359968,,21505,0,,1,F-N/B,,,Coast Hwy & Vista Way
21510,Carlsbad Bl & Oak Av,33.156618,-117.350627,,21510,0,,1,N-N/B,,,Clsbd&Oak
21511,Carlsbad Bl & Chestnut Av,33.152607,-117.349120,,21511,0,,2,N-N/B,,,Clsbd&Chestnut
21515,Carlsbad Bl & Tamarack Av,33.147967,-117.345584,,21515,0,,2,F-N/B,,,Clsbd&Tamarack
21516,Harding St & Oak Av,33.161096,-117.343807,,21516,0,,1,F-N/B,,,Harding&Oak
21517,Harding St & Pine Av,33.159934,-117.342872,,21517,0,,2,F-N/B,,,Harding&Pine
21520,Pio Pico Dr & Magnolia Av,33.155368,-117.337728,,21520,0,,0,F-N/B,,,Pio Pico&Magnolia
21523,Carlsbad Bl & Cannon Rd,33.132921,-117.335637,,21523,0,,2,F-N/B,carcan,,Clsbd&Cannon
21525,Monroe St & Hosp Way,33.171174,-117.334607,,21525,0,,2,F-N/B,,,Monroe&Hosp Way
21527,Monroe St & Ave Of Trees,33.169508,-117.333817,,21527,0,,2,F-N/B,,,Monroe&Ave Of Trees
21528,Carlsbad Bl & Cerezo Dr,33.128843,-117.332786,,21528,0,,0,F-N/B,,,Clsbd&Cerezo
21529,El Camino Real & Mesa Dr,33.208924,-117.333302,,21529,0,,1,F-N/B,ecrmes,,El Cmo Real&Mesa
21531,El Camino Real & Oceanside Bl,33.202231,-117.332418,,21531,0,,1,F-N/B,,,El Cmo Real&Oceanside
21532,El Camino Real & Vista Oceana,33.216723,-117.332210,,21532,0,,1,F-N/B,,,El Cmo Real&Vista Oceana
21534,El Camino Real & Mission Av,33.227388,-117.330950,,21534,0,,1,F-N/B,ecrmiN,,El Cmo Real&Mission
21535,Monroe St & Gayle Way,33.165303,-117.328717,,21535,0,,1,F-N/B,,,Monroe&Gayle Way
21536,El Camino Real & Skyline Dr,33.193603,-117.327851,,21536,0,,2,F-N/B,,,El Cmo Real&Skyline
21537,El Camino Real & Camino Town,33.185428,-117.327838,,21537,0,,1,F-N/B,,,El Cmo Real & Cmo Town
21538,Monroe St & Chestnut Av,33.162414,-117.326845,,21538,0,,2,F-N/B,monchN,,Monroe&Chestnut
21539,El Camino Real & Marron Rd,33.178511,-117.326592,,21539,0,,1,F-N/B,,,El Cmo Real&Marron
21540,Douglas Dr & Mission Av,33.229438,-117.325971,,21540,0,,1,F-N/B,,,Douglas&Mission
21541,Douglas Dr & El Camino Real,33.232251,-117.324985,,21541,0,,1,F-N/B,,,Douglas&El Cmo Real
21544,Santa Margarita Rd & Vandegrift Bl,33.322904,-117.325729,,21544,0,,2,F-N/B,,,Santa Margarita&Vandegrift
21545,El Camino Real & Carlsbad Village Dr,33.172277,-117.322752,,21545,0,,1,F-N/B,,,El Cmo Real&Clsbd Vlge
21546,Avenida De Anita & Avenida De Louisa,33.175359,-117.322503,,21546,0,,1,F-N/B,,,Avda De Anita&Avda De Louisa
21547,Douglas Dr & Pala Rd,33.238448,-117.322461,,21547,0,,1,F-N/B,,,Douglas&Pala
21548,Avenida De Anita & Calle Susana,33.174685,-117.321105,,21548,0,,1,F-N/B,,,Avda De Anita&Calle Susana
21549,El Camino Real & Chestnut Av,33.164751,-117.319948,,21549,0,,1,F-N/B,,,El Cmo Real&Chestnut
21551,Carlsbad Bl & Poinsettia Ln,33.102303,-117.318179,,21551,0,,1,F-N/B,carpoN,,Clsbd&Poinsettia
21554,Sequoia & Farrari,33.347386,-117.319209,,21554,0,,2,F-W/B,,,Sequoia&Farrari
21558,El Camino Real & Tamarack Av,33.154523,-117.313223,,21558,0,,0,F-N/B,,,El Cmo Real&Tamarack
21560,Rancho Del Oro Rd & Vista Way Village Dr,33.183346,-117.311001,,21560,0,,2,F-N/B,,,Rcho Del Oro & Vista Way Vlge
21561,El Camino Real & Kelly Dr,33.152865,-117.310396,,21561,0,,2,F-W/B,,,El Cmo Real&Kelly
21563,Vandegrift Bl & 14th St,33.308243,-117.311202,,21563,0,,2,F-N/B,,,Vandegrift&14th
21566,Rancho Del Oro Rd & Del Oro Homes,33.189771,-117.308179,,21566,0,,1,F-N/B,,,Rcho Del Oro & Del Oro Homes
21568,Hwy 101 & Grandview St,33.075865,-117.305915,,21568,0,,2,F-N/B,,,Hwy 101 & Grandview
21569,Vandegrift Bl & 16th St (14 Area),33.313706,-117.309697,,21569,0,,1,F-N/B,van16S,,Vandegrift&16th (14 Area)
21571,Vandegrift Bl & Base Stables,33.290171,-117.307736,,21571,0,,2,F-N/B,,,Vandegrift&Baseables
21574,Hwy 101 & Phoebe St,33.069306,-117.303672,,21574,0,,2,N-N/B,,,Hwy 101 & Phoebe
21577,Hwy 101 & Leucadia Blvd,33.065251,-117.302395,,21577,0,,2,F-N/B,,,Hwy 101 & Leucadiavd
21585,N River Rd & College Blvd,33.251793,-117.299844,,21585,0,,2,F-N/B,,,N River & Collvd
21592,Vandegrift Bl & Gold Dr,33.258424,-117.298583,,21592,0,,1,F-N/B,,,Vandegrift&Gold
21593,Vandergrift Blvd & Parker St,33.261889,-117.297926,,21593,0,,1,F-N/B,,,Vandergrift& Parker
21599,College Blvd & Adams St,33.249516,-117.295619,,21599,0,,1,F-W/B,,,Coll& Adams
21600,Hwy 101 & H St,33.040973,-117.293065,,21600,0,,1,F-N/B,,,Hwy 101 & H
21601,Hwy 101 & K St,33.036021,-117.291784,,21601,0,,1,N-N/B,,,Hwy 101 & K
21603,College Blvd & Via Cupeno,33.247362,-117.291383,,21603,0,,1,F-N/B,,,Coll& Via Cupeno
21604,El Camino Real & Rancho Carlsbad Dr,33.146948,-117.289971,,21604,0,,1,F-W/B,,,El Cmo Real&Rcho Clsbd
21606,Thunder Dr & Vista Way,33.184839,-117.288190,,21606,0,,1,F-N/B,thuviN,,Thunder & Vista Way
21607,Saxony Rd & Seacrest Way,33.051949,-117.285529,,21607,0,,1,F-N/B,,,Saxony&Seacrest Way
21608,Saxony Rd & Silver Berry Pl,33.056028,-117.285411,,21608,0,,0,F-N/B,,,Saxony&Silver Berry
21609,Saxony Rd & Puebla St,33.061455,-117.285230,,21609,0,,1,N-N/B,,,Saxony&Puebla
21614,Emerald Dr & Silver Fox Ln,33.203969,-117.279449,,21614,0,,2,F-N/B,,,Emerald&Silver Fox
21615,Emerald Dr & Borra Ct,33.201114,-117.279448,,21615,0,,2,F-N/B,,,Emerald&Borra
21622,Yarrow Dr & Camino Vida Roble,33.120151,-117.273579,,21622,0,,2,F-N/B,,,Yarrow&Cmo Vida Roble
21623,Hwy 101 & Lomas Santa Fe Dr,32.992676,-117.271706,,21623,0,,2,F-N/B,101loN,,Hwy 101 & Lomas Santa Fe
21624,El Camino Real & Faraday Av,33.136789,-117.273411,,21624,0,,1,F-N/B,,,El Cmo Real&Faraday
21626,Hwy 101 & Via De La Valle,32.980897,-117.268990,,21626,0,,1,F-N/B,,,Hwy 101 & V dl Valle
21627,Camino Del Mar & 29th St,32.972405,-117.268375,,21627,0,,1,F-N/B,,,Cmo Del Mar&29th
21628,El Camino Real & Costa Del Mar Rd,33.089723,-117.269242,,21628,0,,1,F-N/B,,,El Cmo Real & Costa Del Mar
21629,Camino Del Mar & 24th St,32.968910,-117.267619,,21629,0,,1,N-N/B,,,Cmo Del Mar&24th
21632,El Camino Real & Arenal Rd,33.094306,-117.267716,,21632,0,,2,F-N/B,,,El Cmo Real&Arenal
21634,El Camino Real & Carlsbad Water District,33.131973,-117.268641,,21634,0,,1,F-N/B,ecpal9,,El Cmo Real&Clsbd Water District
21635,El Camino Real & Dove Ln,33.105539,-117.266899,,21635,0,,2,F-N/B,,,El Cmo Real&Dove
21636,Camino Del Mar & 15th St,32.960084,-117.265178,,21636,0,,1,F-N/B,cdm15N,,Cmo Del Mar&15th
21637,El Camino Real & Alga Rd,33.102772,-117.266395,,21637,0,,1,F-N/B,,,El Cmo Real&Alga
21638,El Camino Real & Levante St,33.078829,-117.265471,,21638,0,,2,F-N/B,,,El Cmo Real&Levante
21639,Camino Del Mar & 9th St,32.953910,-117.263045,,21639,0,,1,F-N/B,,,Cmo Del Mar&9th
21640,El Camino Real & Garden View Rd (501),33.059126,-117.262543,,21640,0,,1,F-N/B,ecrgvN,,El Cmo Real & Garden View (501)
21641,Stevens Av & Academy Dr,32.991333,-117.261312,,21641,0,,2,F-N/B,,,Stevens&Academy
21642,El Camino Real & Olivenhain Rd,33.068167,-117.262008,,21642,0,,1,F-N/B,ecrleN,,El Cmo Real&Olivenhain
21643,El Camino Real & Mountain Vista Dr,33.052145,-117.260777,,21643,0,,2,F-N/B,,,El Cmo Real&Mtn Vista
21644,El Camino Real & Encinitas Bl,33.047681,-117.259423,,21644,0,,1,F-N/B,ecrenc,,El Cmo Real&Encinitas
21645,Stevens Av & Valley Av,32.983545,-117.258628,,21645,0,,1,F-N/B,,,Stevens&Vly
21650,Melrose Dr & W Los Angeles Dr,33.211869,-117.255605,,21650,0,,1,F-N/B,,,Melrose&W Los Angeles
21652,Melrose Dr & Olive Av,33.205161,-117.254083,,21652,0,,1,F-N/B,,,Melrose&Olive
21653,Melrose Dr & Sunset Dr,33.178132,-117.253544,,21653,0,,2,F-N/B,,,Melrose&Sunset
21654,Melrose Dr & Las Palmas Dr,33.186503,-117.253290,,21654,0,,2,F-N/B,,,Melrose&Las Palmas
21655,Melrose Dr & Branding Iron Dr,33.182409,-117.252302,,21655,0,,1,F-N/B,,,Melrose&Branding Iron
21658,N Santa Fe Av & Paseo Marguerita,33.232065,-117.249394,,21658,0,,1,F-N/B,,,N Santa Fe&Paseo Marguerita
21660,Melrose Dr & Buena Vista Dr,33.167561,-117.247417,,21660,0,,1,F-N/B,,,Melrose&Buena Vista
21661,S Mission Rd & Pepper Tree Ln,33.363267,-117.249101,,21661,0,,1,F-N/B,,,S Mission&Pepper Tree
21663,N Torrey Pines Rd & Torrey Pines Golf Course,32.905431,-117.243229,,21663,0,,0,M-Special_Loc,,,N Try Pines & Try Pines Golf Course
21664,N Santa Fe Av & Angeles Vista Dr,33.225471,-117.246434,,21664,0,,1,F-N/B,,,N Santa Fe&Angeles Vista
21665,N Torrey Pines Rd & Science Park Rd,32.902044,-117.242567,,21665,0,,0,F-N/B,,,N Try Pines & Science Park
21666,Melrose Dr & Live Oak Rd,33.165129,-117.245739,,21666,0,,1,F-N/B,melloN,,Melrose&Live Oak
21667,N Santa Fe Av & Orange St,33.205173,-117.244849,,21667,0,,1,F-N/B,,,N Santa Fe&Orange
21670,N Santa Fe Av & Townsite Dr,33.211724,-117.244797,,21670,0,,1,F-N/B,,,N Santa Fe&Townsite
21671,N Santa Fe Av & East Dr,33.214268,-117.244787,,21671,0,,1,F-N/B,,,N Santa Fe&East
21672,N Santa Fe Av & Bobier Dr,33.220087,-117.244728,,21672,0,,1,N-N/B,nsfboN,,N Santa Fe&Bobier
21674,N Santa Fe Av & Vista Village Dr,33.202943,-117.244079,,21674,0,,0,F-N/B,nsfvvN,,N Santa Fe&Vista Vlge
21675,Melrose Dr & Dawson Dr,33.150573,-117.242028,,21675,0,,2,F-N/B,,,Melrose&Dawson
21676,Melrose Dr & Green Oak Rd,33.155441,-117.241509,,21676,0,,2,F-N/B,,,Melrose&Green Oak
21677,Melrose Dr & Sycamore Av,33.145931,-117.240992,,21677,0,,1,F-N/B,,,Melrose&Sycamore
21678,Rancho Santa Fe Rd & Calle Barcelona,33.072451,-117.241928,,21678,0,,2,F-N/B,,,Rcho Santa Fe&Calle Barcelona
21679,Rancho Santa Fe Rd & Encinitas Bl,33.037511,-117.238454,,21679,0,,1,F-N/B,rsfenN,,Rcho Santa Fe&Encinitas
21680,S Mission Rd & Big Oak Ranch Rd,33.339760,-117.238748,,21680,0,,1,F-N/B,,,S Mission&Big Oak Ranch
21681,Rancho Santa Fe Rd & Olive Crest Dr,33.058182,-117.236043,,21681,0,,2,F-N/B,,,Rcho Santa Fe&Olive Crest
21683,S Mission Rd & Via Encinos Dr,33.328955,-117.236006,,21683,0,,1,F-N/B,,,S Mission&Via Encinos
21684,S Mission Rd & Green Canyon Rd,33.333566,-117.235901,,21684,0,,1,F-N/B,,,S Mission&Green Cyn
21686,Anza Av & Bobier Dr,33.219836,-117.233592,,21686,0,,2,F-N/B,,,Anza&Bobier
21687,S Mission Rd & Hellers Bend (North),33.324182,-117.235026,,21687,0,,1,F-N/B,,,S Mission & Hellers Bend (North)
21688,Anza Av & Monterey Ln,33.221640,-117.232572,,21688,0,,1,F-N/B,,,Anza&Monterey
21691,E Vista Way & Hutchison St,33.251215,-117.230728,,21691,0,,2,F-N/B,evwhuN,,E Vista Way&Hutchison
21692,E Vista Way & Gopher Canyon Rd,33.247448,-117.228043,,21692,0,,2,F-N/B,,,E Vista Way&Gopher Cyn
21693,S Mission Rd & La Canada Rd,33.309276,-117.228253,,21693,0,,1,F-N/B,,,S Mission&La Canada
21694,E Vista Way & Arcadia Av,33.225191,-117.226019,,21694,0,,1,F-N/B,evwarN,,E Vista Way&Arcadia
21695,E Vista Way & Serra Dr,33.230803,-117.226052,,21695,0,,2,M-Street-N/B,,,E Vista Way & Serra
21696,E Vista Way & Osborne St,33.239430,-117.226132,,21696,0,,2,F-N/B,,,E Vista Way&Osborne
21697,Rancho Santa Fe Rd & La Costa Meadows Dr,33.105091,-117.224937,,21697,0,,1,F-E/B,,,Rcho Santa Fe&La Costa Meadows
21699,Hwy 76 & Camino Del Rey,33.289260,-117.225254,,21699,0,,1,F-N/B,miscam,,Hwy 76 & Cmo Del Rey
21701,La Mirada Dr & Coral St,33.150706,-117.223043,,21701,0,,2,F-W/B,,,La Mirada&Coral
21703,Sycamore Av & Hibiscus Av,33.161485,-117.219186,,21703,0,,1,F-N/B,,,Sycamore&Hibiscus
21704,Rancho Santa Fe Rd & Camino Del Arroyo,33.122054,-117.218632,,21704,0,,1,N-N/B,,,Rcho Santa Fe&Cmo Del Arroyo
21705,La Mirada Dr & Ash St,33.149363,-117.219131,,21705,0,,2,F-W/B,,,La Mirada&Ash
21707,Rancho Santa Fe Rd & Lake San Marcos Dr,33.127139,-117.212923,,21707,0,,2,F-N/B,,,Rcho Santa Fe&Lake San Marcos
21709,Rancho Santa Fe & San Marcos Blvd,33.131880,-117.207772,,21709,0,,1,F-N/B,rsfsmN,,Rcho Santa Fe&San Marcosvd
21711,Rancho Santa Fe Rd & Linda Vista Dr,33.140540,-117.202991,,21711,0,,1,F-N/B,,,Rcho Santa Fe&L Vsta
21712,Rancho Santa Fe Rd & Cherokee St,33.144836,-117.200812,,21712,0,,1,F-N/B,,,Rcho Santa Fe&Cherokee
21713,Rancho Santa Fe Rd & Grand Av,33.146368,-117.200072,,21713,0,,1,F-N/B,,,Rcho Santa Fe&Grand
21716,Rancho Minerva Middle School,33.203430,-117.204980,,21716,0,,0,,rmnvms,,Rcho Minerva Middle School
21717,Vale Terrace Dr & Alta Mesa Dr,33.206689,-117.214417,,21717,0,,0,,,,Vale & Alta Mesa
21720,North Santa Fe Av & Vista Vilage Dr,33.204022,-117.244969,,21720,0,,0,,nsfvvS,,NSanta Fe & Vista Vilage
21723,Valley Pkwy & Citracado Pkwy,33.097098,-117.111007,,21723,0,,1,F-E/B,,,Vly&Citracado
21724,Valley Pkwy & Vermel Av,33.099600,-117.108406,,21724,0,,1,F-N/B,,,Vly&Vermel
21727,Rock Springs Rd & Mission Av,33.127240,-117.097572,,21727,0,,1,F-N/B,rocmis,,Rock Sprgs&Mission
21728,Morning View Dr & Lincoln Av,33.132785,-117.094625,,21728,0,,1,F-N/B,,,Morning View&Lincoln
21730,Broadway & Vista Av,33.154162,-117.091669,,21730,0,,1,F-N/B,,,Brdwy&Vista
21732,Broadway & Sheridan Av,33.143656,-117.090010,,21732,0,,1,F-N/B,,,Brdwy&Sheridan
21733,Broadway & El Norte Pkwy,33.140432,-117.089484,,21733,0,,1,F-N/B,brenpN,,Brdwy&El Norte
21734,Escondido Bl & Washington Av,33.126417,-117.088134,,21734,0,,1,F-N/B,,,Escondido&Wshngtn
21736,Broadway & Lincoln Av,33.134267,-117.086904,,21736,0,,1,F-N/B,,,Brdwy&Lincoln
21737,Broadway & Mission Av,33.130915,-117.085410,,21737,0,,1,F-N/B,,,Brdwy&Mission
21739,Broadway & Park Av,33.129040,-117.084677,,21739,0,,1,F-N/B,broprk,,Brdwy&Park
21748,Escondido Bl & 6th Av,33.116108,-117.081157,,21748,0,,1,F-N/B,,,Escondido&6th
21749,Escondido Bl & 9th Av,33.113213,-117.079105,,21749,0,,1,F-N/B,,,Escondido&9th
21754,Escondido Bl & 13th Av,33.109860,-117.076735,,21754,0,,1,F-N/B,esc13,,Escondido&13th
21758,Escondido Bl & Felicita Av,33.105229,-117.073393,,21758,0,,1,F-N/B,escfel,,Escondido&Felicita
21766,Pala Mission Rd & Temecula Rd,33.365156,-117.072053,,21766,0,,1,F-W/B,,,Pala Mission & Temecula
21773,Bear Valley Pkwy & Mary Ln (San Pasqual HS),33.077150,-117.057368,,21773,0,,0,N-N/B,bvpmry,,Bear Vly&Mary (San Pasqual HS)
21774,Bear Valley Pkwy & Peet Ln,33.085837,-117.056958,,21774,0,,0,N-N/B,,,Bear Vly&Peet
21777,Midway Dr & Mission Av,33.144316,-117.056046,,21777,0,,1,N-N/B,,,Midway&Mission
21779,Midway Dr & 460,33.139018,-117.052508,,21779,0,,1,M-Street-N/B,valmid,,Midway&460
21780,Citrus Av & Bear Valley Pkwy,33.138626,-117.042664,,21780,0,,1,F-N/B,,,Citrus&Bear Vly
21784,Valley Center Rd & Woods Valley Rd,33.206321,-117.033271,,21784,0,,1,F-N/B,,,Vly Ctr & Woods Vly
21785,Hwy 76 & Adams Dr,33.340651,-117.012982,,21785,0,,2,F-W/B,,,Hwy 76 & Adams
21786,Hwy 78 & Horizon View Dr,33.075230,-116.902692,,21786,0,,2,F-N/B,,,Hwy 78 & Horizon View
21794,Oceanside Bl & Macdonald St,33.199141,-117.347618,,21794,0,,2,M-Street-E/B,,,Oceanside&Macdonald
21795,Mesa Dr & Wilcox St,33.210275,-117.341320,,21795,0,,1,N-S/B,,,Mesa&Wilcox
21796,Oceanside Blvd & El Camino Real,33.201865,-117.334587,,21796,0,,1,F-W/B,oceecr,,Oceanside& El Cmo Real
21797,El Camino Real & Coco Palms Dr (Trico MHP),33.229582,-117.328344,,21797,0,,1,F-E/B,douecr,,El Cmo Real&Coco Palms (Trico MHP)
21798,Carlsbad Village Dr & Pontiac Dr,33.171522,-117.313487,,21798,0,,1,N-E/B,carpon,,Clsbd Vlge&Pontiac
21799,Carlsbad Village Dr & Pontiac Dr,33.171863,-117.313041,,21799,0,,2,F-W/B,carpon,,Clsbd Vlge&Pontiac
21801,Barnard Dr & MiraCosta College,33.189040,-117.300500,,21801,0,,1,M-Street-E/B,,,Barnard & MiraCosta Coll
21803,Encinitas Bl & Town & Country,33.046764,-117.281782,,21803,0,,2,N-E/B,,,Encinitas&Town & Country
21804,Oceanside Blvd & St Margarets Church,33.210254,-117.278657,,21804,0,,1,M-Street-W/B,,,Oceanside& Margarets Church
21806,Oceanside Blvd & Catalina Cir,33.219413,-117.264372,,21806,0,,1,M-Street-W/B,,,Oceanside& Catalina Cir
21807,Oceanside Blvd & Catalina Cir,33.219139,-117.264053,,21807,0,,1,M-Street-E/B,,,Oceanside& Catalina Cir
21810,Via De La Valle & 2705,32.980491,-117.249682,,21810,0,,1,F-E/B,vafloE,,V dl Valle & 2705
21811,W Vista Way & Melrose Plaza,33.196094,-117.252344,,21811,0,,1,N-E/B,,,W Vista Way&Melrose Pza
21812,Bobier Dr & Heidi Cir,33.221242,-117.240933,,21812,0,,1,N-E/B,,,Bobier & Heidi Cir
21813,Via De La Valle & El Camino Real (N),32.983359,-117.225006,,21813,0,,2,F-E/B,,,V dl Valle&El Cmo Real (N)
21814,S Santa Fe Av & 1275,33.187777,-117.225668,,21814,0,,1,M-Street-S/B,,,S Santa Fe&1275
21815,S Santa Fe Av & Mar Vista Dr (1411),33.184252,-117.222618,,21815,0,,0,F-E/B,,,S Santa Fe&Mar Vista (1411)
21816,S Santa Fe Av & 2511,33.163824,-117.205415,,21816,0,,1,M-Street-S/B,,,S Santa Fe & 2511
21825,Mission Av & Gamble St,33.131804,-117.080359,,21825,0,,1,M-Street-E/B,,,Mission&Gamble
21828,Valley Pkwy & Imperial Escondido MHP,33.140049,-117.046697,,21828,0,,1,M-Street-W/B,,,Vly&Imperial Escondido MHP
21829,Valley Pkwy & Citrus Av (Ralphs),33.141382,-117.043042,,21829,0,,1,F-E/B,,,Vly&Citrus (Ralphs)
21831,Glenridge Rd & Vulcan Pl,33.128965,-117.039131,,21831,0,,1,N-W/B,oghsW,,Glenridge & Vulcan
21832,Valley Center Rd & Miller Rd,33.231057,-117.032929,,21832,0,,1,F-W/B,,,Vly Ctr&Miller
21833,Valley Center Rd & Mirar De Valle Rd,33.210880,-117.033679,,21833,0,,1,F-S/B,,,Vly Ctr & Mirar De Valle
21834,Valley Center Rd & Valley Center Plaza,33.217364,-117.033679,,21834,0,,1,M-Special_Loc,,,Vly Ctr&Vly Ctr Pza
21835,Valley Center Rd & Cole Grade Rd,33.231258,-117.026336,,21835,0,,1,F-W/B,valcoW,,Vly Ctr&Cole Grade
21836,Valley Center Rd & Irish Oaks Rd (29779),33.228270,-117.011234,,21836,0,,1,N-W/B,,,Vly Ctr&Irish Oaks (29779)
21837,Valley Center Rd & Rock Hill Ranch Rd,33.228328,-117.006247,,21837,0,,1,F-W/B,,,Vly Ctr&Rock Hill Ranch
21838,Valley Center Rd & Sunset Rd,33.228303,-116.981380,,21838,0,,1,F-W/B,,,Vly Ctr & Sunset
21839,Valley Center Rd & Kolb Rd,33.247043,-116.963696,,21839,0,,1,F-S/B,,,Vly Ctr&Kolb
21840,Valley Center Rd & Morningstar Ln,33.248918,-116.963453,,21840,0,,1,F-S/B,,,Vly Ctr&Morningstar
21843,Valley Center Rd & Boucher Heights Rd,33.256039,-116.959327,,21843,0,,1,N-S/B,,,Vly Ctr&Boucher Heights
21844,Valley Center Rd & Golsh Rd,33.277455,-116.953759,,21844,0,,1,N-S/B,,,Vly Ctr&Golsh
21845,Valley Center Rd & South Resort Dr (Harrah's),33.265617,-116.953915,,21845,0,,1,F-S/B,rincaS,,Vly Ctr & SResort (Harrah's)
21846,Valley Center Rd & Arviso Rd,33.270169,-116.953864,,21846,0,,1,F-S/B,,,Vly Ctr&Arviso
21847,Valley Center Rd & Tribal Rd,33.272782,-116.953776,,21847,0,,1,F-S/B,,,Vly Ctr & Tribal
21848,Hwy 78 & Across From Turnout,33.087979,-116.937454,,21848,0,,2,M-Special_Loc,,,Hwy 78 & Across From Turnout
21852,Vandegrift Bl & Building 22831,33.287668,-117.371183,,21852,0,,0,M-Street-E/B,,,Vandegrift&Building 22831
21853,Oceanside Bl & Coast Hwy,33.184039,-117.368724,,21853,0,,1,N-W/B,ocecoa,,Oceanside&Coast Hwy
21854,Oceanside Blvd & I-5,33.189469,-117.363506,,21854,0,,1,N-E/B,,,Oceanside& I-5
21855,Vandegrift Bl & 7th St,33.294332,-117.357808,,21855,0,,0,F-W/B,,,Vandegrift&7th
21857,Oceanside Blvd & Crouch St,33.194390,-117.354410,,21857,0,,0,F-E/B,osdcrE,,Oceanside& Crouch
21858,11th St & Vandegrift Bl,33.298137,-117.346299,,21858,0,,2,F-S/B,,,11th&Vandegrift
21864,Oceanside Blvd & Rancho Del Oro Dr,33.203201,-117.311950,,21864,0,,1,F-W/B,osrdoW,,Oceanside& Rcho Del Oro
21865,MiraCosta College,33.192362,-117.303695,,21865,0,,1,M-Street-E/B,mircoE,,MiraCosta Coll
21866,Oceanside Blvd & Corporate Centre Dr,33.203696,-117.305910,,21866,0,,2,N-E/B,,,Oceanside& Corporate Centre
21867,Waring Rd & Camarillo Av,33.186608,-117.294120,,21867,0,,1,N-N/B,,,Waring&Camarillo
21870,Saxony Rd & Saxony Pl,33.053697,-117.285478,,21870,0,,0,N-S/B,,,Saxony&Saxony
21871,W Vista Way & Cedar Rd,33.186253,-117.283402,,21871,0,,2,F-E/B,,,W Vista Way&Cedar
21872,Oceanside Bl & Arroyo Av,33.208744,-117.280885,,21872,0,,1,F-E/B,,,Oceanside&Arroyo
21874,Oceanside Blvd & Beverly Glen Dr,33.212933,-117.274952,,21874,0,,1,F-E/B,,,Oceanside& Beverly Glen
21876,Encinitas Bl & Beechtree Dr,33.046164,-117.262098,,21876,0,,2,F-W/B,,,Encinitas&Beechtree
21879,Bobier Dr & Kiva Ln,33.221252,-117.243394,,21879,0,,1,F-E/B,,,Bobier&Kiva
21881,Park Center Dr & 1335,33.140367,-117.238832,,21881,0,,2,M-Street-N/B,,,Park Ctr&1335
21883,S Santa Fe Av & 1011,33.192354,-117.230662,,21883,0,,1,M-Street-E/B,,,S Santa Fe&1011
21884,S Santa Fe Av & Monte Vista Dr (1069),33.190941,-117.228282,,21884,0,,1,M-Street-E/B,ssfmv,,S Santa Fe&Monte Vista (1069)
21885,Vale Terrace Dr & Brengle Terrace Pk,33.206129,-117.219354,,21885,0,,2,N-E/B,brengE,,Vale & Brengle Pk
21886,Via De La Valle & Las Palomas,32.994258,-117.212169,,21886,0,,1,N-E/B,,,V dl Valle&Las Palomas
21889,Mission Rd & Knoll Rd,33.145072,-117.172851,,21889,0,,1,F-E/B,,,Mission&Knoll
21891,Mission Rd & Mission Hills Ct,33.143883,-117.144753,,21891,0,,1,M-Street-E/B,,,Mission&Mission Hills
21893,Country Club Ln & Montego Av,33.157363,-117.103364,,21893,0,,1,F-E/B,,,Country Club&Montego
21895,Valley Pkwy & Ivy St,33.125124,-117.077339,,21895,0,,1,F-W/B,,,Vly & Ivy
21896,Sunset Dr & Royal Crest Dr,33.096980,-117.063925,,21896,0,,0,F-N/B,,,Sunset&Royal Crest
21897,Valley Pkwy & Eastwood Meadows MHP,33.142608,-117.041154,,21897,0,,1,M-Street-W/B,,,Vly&Eastwood Meadows MHP
21898,Glenridge Rd & Vulcan Pl,33.128763,-117.039210,,21898,0,,1,F-E/B,oghsE,,Glenridge & Vulcan
21899,Valley Center Rd & Irish Oaks Rd,33.228141,-117.010713,,21899,0,,1,F-W/B,,,Vly Ctr&Irish Oaks
21900,Hwy 78 & San Pasqual School,33.088960,-116.979231,,21900,0,,2,F-E/B,,,Hwy 78 & San Pasqual School
21901,Valley Center Rd & Sunset Rd,33.228159,-116.981322,,21901,0,,1,N-E/B,,,Vly Ctr & Sunset
21902,Hwy 78 & FAH Medical Station,33.089845,-116.975963,,21902,0,,2,F-E/B,,,Hwy 78 & FAH Medical Sta
21904,Valley Center Rd & S Paradise Creek Ln,33.244892,-116.963817,,21904,0,,2,F-N/B,,,Vly Ctr & S Paradise Creek
21907,Valley Center Rd & South Resort Dr (Harrah's),33.266185,-116.953658,,21907,0,,1,N-N/B,rincaN,,Vly Ctr & SResort (Harrah's)
21908,Valley Center Rd & McCormick Rd,33.270915,-116.953610,,21908,0,,1,F-N/B,,,Vly Ctr&McCormick
21909,Valley Center Rd & Mazzetti Ln,33.277369,-116.953585,,21909,0,,1,F-N/B,,,Vly Ctr&Mazzetti
21910,Valley Center Rd & Tribal Rd,33.273732,-116.953595,,21910,0,,2,N-N/B,,,Vly Ctr & Tribal
21911,Hwy 78 & San Pasqual Academy,33.090456,-116.948499,,21911,0,,1,N-E/B,78spa,,Hwy 78 & San Pasqual Academy
21912,Hwy 78 & Mountain View Church,33.061941,-116.871653,,21912,0,,2,F-S/B,78have,,Hwy 78 & Mtn View Church
21917,Stuart Mesa & Donald Cook Rd,33.257162,-117.421532,,21917,0,,2,N-W/B,,,Stuart Mesa&Donald Cook
21926,Coast Hwy & Eaton St,33.170442,-117.358041,,21926,0,,1,N-N/B,,,Coast Hwy & Eaton
21927,Carlsbad Bl & Cypress Av,33.161687,-117.353992,,21927,0,,1,F-S/B,,,Clsbd&Cypress
21930,Marron Rd & Monroe St,33.176656,-117.338715,,21930,0,,1,F-W/B,,,Marron&Monroe
21932,Marron Rd & Monroe St (Sears),33.177361,-117.334131,,21932,0,,2,N-W/B,,,Marron & Monroe (Sears)
21934,Hwy 101 & Bishops Gate Rd,33.078665,-117.307162,,21934,0,,1,M-Street-S/B,,,Hwy 101 & Bishops Gate
21935,Barnard Dr & Glaser Dr (Miracosta College),33.191186,-117.304352,,21935,0,,1,N-N/B,mircoW,,Barnard&Glaser (Miracosta Coll)
21936,Barnard Dr & MiraCosta Theatre,33.187995,-117.301944,,21936,0,,2,M-Special_Loc,,,Barnard & MiraCosta Theatre
21938,Hwy 101 & A St,33.050460,-117.294651,,21938,0,,1,N-S/B,,,Hwy 101 & A
21940,Yarrow Dr & 6231,33.121754,-117.273849,,21940,0,,2,M-Special_Loc,,,Yarrow&6231
21942,N Santa Fe Av & Guajome Park,33.240795,-117.273677,,21942,0,,2,F-W/B,,,N Santa Fe&Guajome Park
21943,El Camino Real & Cassia Rd,33.113479,-117.271790,,21943,0,,1,F-S/B,,,El Cmo Real&Cassia
21944,El Camino Real & La Costa Towne Ctr,33.081363,-117.266621,,21944,0,,1,N-S/B,,,El Cmo Real & La Costa Towner
21946,El Camino Real & Pointsettia Ln,33.107811,-117.268685,,21946,0,,1,F-S/B,,,El Cmo Real&Ptsettia
21947,El Camino Real & Campus Point,33.132231,-117.269350,,21947,0,,2,N-S/B,ecpal9,,El Cmo Real&Campus Pt
21948,El Camino Real & Costa Del Mar Rd,33.089014,-117.269481,,21948,0,,1,F-S/B,,,El Cmo Real&Costa Del Mar
21949,El Camino Real & Garden View Rd,33.058042,-117.262894,,21949,0,,1,F-S/B,ecrgvS,,El Cmo Real&Garden View
21950,El Camino Real & Camino Encinitas Plaza (318),33.054390,-117.261931,,21950,0,,2,N-S/B,,,El Cmo Real&Cmo Encinitas Pza (318)
21952,Melrose Dr & Oceanside Blvd,33.220196,-117.258808,,21952,0,,2,F-S/B,osdmeS,,Melrose & Oceansidevd
21954,Via De La Valle & San Andres Dr,32.980963,-117.248890,,21954,0,,1,F-W/B,vafloW,,V dl Valle & San Andres
21955,S Mission Rd & Clemmens Ln,33.368661,-117.250650,,21955,0,,1,N-N/B,,,S Mission&Clemmens
21957,Park Center Dr & 1330,33.140785,-117.238695,,21957,0,,2,M-Street-S/B,,,Park Ctr&1330
21958,Bobier Dr & Heidi Cir,33.221429,-117.238715,,21958,0,,1,M-Street-W/B,,,Bobier & Heidi Cir
21959,S Santa Fe Av & Monte Vista Dr (1070),33.190930,-117.227870,,21959,0,,1,F-W/B,ssfmv,,S Santa Fe&Monte Vista (1070)
21960,Foothill Dr & E Vista Way,33.217377,-117.224258,,21960,0,,1,M-Street-W/B,,,Foothill&E Vista Way
21961,Via De La Valle & Caminito Porta Delgada,32.983942,-117.220454,,21961,0,,2,F-W/B,,,V dl Valle & Cmto Porta Delgada
21962,Vale Terrace & 1229,33.208444,-117.222566,,21962,0,,0,M-Special_Loc,,,Vale&1229
21963,Shadowridge Dr & Watson Way (780),33.166417,-117.221367,,21963,0,,1,N-W/B,shawaW,,Shadowridge&Watson Way (780)
21964,Vale Terrace Dr & Brengle Terrace Pk,33.206565,-117.219690,,21964,0,,1,F-W/B,brengW,,Vale & Brengle Pk
21965,S Santa Fe Av & Azalea Dr,33.167919,-117.205842,,21965,0,,1,N-N/B,,,S Santa Fe&Azalea
21966,S Santa Fe Av & Poinsettia Av (2430),33.164854,-117.205217,,21966,0,,1,N-W/B,,,S Santa Fe&Poinsettia (2430)
21968,Mission Rd & San Marcos Senior Ctr,33.143039,-117.163683,,21968,0,,1,M-Street-W/B,smseni,,Mission & San Marcos Seniorr
21969,Mission Rd & Mission Hills HS,33.143287,-117.142538,,21969,0,,1,N-W/B,,,Mission & Mission Hills HS
21971,Mission Rd & Enterprise St (1564),33.126812,-117.113707,,21971,0,,0,F-W/B,,,Mission&Enterprise (1564)
21972,Country Club Ln & Montego Av,33.157576,-117.103497,,21972,0,,1,N-W/B,,,Country Club&Montego
21975,Midway Dr & Valley Pkwy,33.139201,-117.052748,,21975,0,,1,N-S/B,valmid,,Midway&Vly
21976,Hwy 76 & Agua Tibia Ranch,33.354988,-117.031689,,21976,0,,2,M-Special_Loc,,,Hwy 76 & Agua Tibia Ranch
21977,Hwy 76 & Grassy Meadow Rd,33.322362,-116.995557,,21977,0,,2,N-E/B,,,Hwy 76 & Grassy Meadow
21978,Hwy 78 & SD Archaeological Ctr,33.088649,-116.981530,,21978,0,,2,M-Special_Loc,,,Hwy 78 & SD Archaeologicalr
21979,Hwy 76 & Lazy H Ranch Restaurant,33.290053,-116.967280,,21979,0,,2,N-E/B,,,Hwy 76 & Lazy H Ranch Restaurant
21980,Hwy 78 & San Pasqual Academy,33.090646,-116.950499,,21980,0,,2,F-W/B,78spa,,Hwy 78 & San Pasqual Academy
21981,Hwy 78 & Turnout (18990 Hwy 78),33.088798,-116.937454,,21981,0,,2,M-Special_Loc,,,Hwy 78 & Turnout (18990 Hwy 78)
21985,Stuart Mesa & Edson Range,33.258650,-117.414291,,21985,0,,2,N-W/B,,,Stuart Mesa&Edson Range
21986,Santa Fe Av & Del Mar Gate,33.208473,-117.390526,,21986,0,,0,N-N/B,,,Santa Fe&Del Mar Gate
21996,Mesa Dr & Hoover St,33.204339,-117.350360,,21996,0,,2,N-W/B,,,Mesa&Hoover
21997,El Camino Real & Villa Mesa,33.210792,-117.333279,,21997,0,,2,M-Special_Loc,,,El Cmo Real&Villa Mesa
22000,Vista Way & 3330 (Auto Club),33.180764,-117.314723,,22000,0,,2,M-Special_Loc,,,Vista Way&3330 (Auto Club)
22002,El Camino Real & W Ranch St,33.151780,-117.303926,,22002,0,,0,N-W/B,,,El Cmo Real & W Ranch
22004,Vista Way & Tri-City Medical Center,33.183933,-117.290909,,22004,0,,1,M-Special_Loc,,,Vista Way & Tri-City Medical Ctr
22005,Santa Fe Dr & Scripps Hospital,33.036355,-117.284125,,22005,0,,1,F-W/B,ScripH,,Santa Fe&Scripps Hospital
22006,N Santa Fe Av & Alamosa Park Dr,33.243250,-117.278633,,22006,0,,2,M-Street-W/B,,,N Santa Fe&Alamosa Park
22007,Hwy 101 & Solana Beach City Hall,32.983562,-117.269925,,22007,0,,1,M-Special_Loc,,,Hwy 101 & Solana Bch City Hall
22008,El Camino Real & La Costa Towne Ctr,33.082216,-117.266680,,22008,0,,1,F-N/B,,,El Cmo Real & La Costa Towner
22009,San Rodolfo Dr & Plaza West,32.994151,-117.259783,,22009,0,,2,F-W/B,,,San Rodolfo&Pza West
22013,Park Center Dr & 1280 (Watkins),33.142678,-117.236222,,22013,0,,2,M-Street-W/B,,,Park Ctr & 1280 (Watkins)
22014,Park Center Dr & Avenida Chelsea,33.143326,-117.233729,,22014,0,,2,F-W/B,prkbuW,,Park Ctr &enida Chelsea
22015,Hwy 76 & Via Montellano,33.275783,-117.233435,,22015,0,,1,F-N/B,,,Hwy 76 & Via Montellano
22016,Vale Terrace Dr & Ponderosa Dr,33.209047,-117.227645,,22016,0,,1,F-W/B,,,Vale & Ponderosa
22017,Rancho Santa Fe Rd & Security Pl,33.134486,-117.206446,,22017,0,,0,N-S/B,,,Rcho Santa Fe&Security
22018,Del Dios Hwy & Via Cuatro Caminos,33.034924,-117.175520,,22018,0,,2,N-W/B,diocua,,Del Dios Hwy&Via Cuatro Cmos
22020,CSUSM Craven Circle,33.128589,-117.160085,,22020,0,,1,M-Street-N/B,csucra,,CSUSM Craven Cir
22022,Country Club Ln & Abby Ln,33.156690,-117.123431,,22022,0,,1,F-W/B,,,Country Club & Abby
22023,Mission Rd & Andreasen Dr,33.124651,-117.107935,,22023,0,,2,F-W/B,,,Mission & Andreasen
22025,Morning View Dr & Morning View Ter,33.140367,-117.097250,,22025,0,,1,M-Street-N/B,,,Morning View&Morning View
22028,Morning View Dr & Riverwalk Apts,33.138184,-117.096519,,22028,0,,1,M-Street-N/B,,,Morning View & Riverwalk Apts
22032,Hwy 76 & Fox Raceway,33.363925,-117.059467,,22032,0,,2,N-W/B,,,Hwy 76 & Fox Raceway
22033,Hwy 76 & Agua Tibia Ranch,33.355071,-117.031466,,22033,0,,2,N-W/B,,,Hwy 76 & Agua Tibia Ranch
22034,Hwy 78 & Cloverdale Rd,33.097688,-117.021368,,22034,0,,2,F-W/B,,,Hwy 78 & Cloverdale
22035,Hwy 76 & 14970,33.338216,-117.007011,,22035,0,,2,F-W/B,,,Hwy 76 & 14970
22036,San Diego Safari Park (Inside gate),33.099950,-117.001837,,22036,0,,1,M-Special_Loc,wildpk,,San Diego Safari Park (Inside gate)
22037,Hwy 76 & Roberts Ranch,33.322463,-116.995361,,22037,0,,2,F-N/B,,,Hwy 76 & Roberts Ranch
22038,Hwy 76 & Pauma Valley Dr,33.303435,-116.978338,,22038,0,,1,F-N/B,,,Hwy 76 & Pauma Vly
22039,Hwy 78 & FAH Medical Station,33.089934,-116.976199,,22039,0,,2,N-W/B,,,Hwy 78 & FAH Medical Sta
22040,Hwy 76 & Pauma Valley Community Ctr,33.293430,-116.969173,,22040,0,,2,F-W/B,,,Hwy 76 & Pauma Vly Communityr
22042,Hwy 78 & Ash St,33.060483,-116.871437,,22042,0,,2,N-N/B,78have,,Hwy 78 & Ash
22043,Basilone Rd & Bldg 53346 (Phone Ctr),33.377173,-117.479138,,22043,0,,1,N-E/B,cphorS,,Basilone&Bldg 53346 (Phoner)
22049,Basilone Rd & Bldg 52540,33.393852,-117.513825,,22049,0,,1,N-E/B,cponoS,,Basilone&Bldg 52540
22050,Basilone Rd & Vicinity Bldg 520593,33.391911,-117.509787,,22050,0,,2,N-E/B,,,Basilone&Vicinitydg 520593
22051,Basilone Rd & Horno Em Club,33.378722,-117.481583,,22051,0,,0,N-S/B,,,Basilone&Horno Em Club
22053,Stuart Mesa & Las Flores,33.288321,-117.440953,,22053,0,,2,N-N/B,cpfloN,,Stuart Mesa&Las Flores
22054,Edson Range & Bldg 31498,33.256626,-117.420701,,22054,0,,2,N-E/B,,,Edson Range&Bldg 31498
22055,Main Gate & Edson Range,33.258627,-117.414885,,22055,0,,2,N-E/B,,,Main Gate&Edson Range
22056,Brown St & Opp 43532 (Las Pulgas),33.349781,-117.412686,,22056,0,,2,N-N/B,cppulN,,Brown&Opp 43532 (Las Pulgas)
22058,Brown St & Bldg 43410,33.347265,-117.411467,,22058,0,,2,N-N/B,,,Brown&Bldg 43410
22059,Brown St & Henderson,33.344261,-117.410752,,22059,0,,2,F-N/B,,,Brown&Henderson
22061,Monroe St & Ave Of Trees,33.169634,-117.334104,,22061,0,,2,N-S/B,,,Monroe&Ave Of Trees
22063,Santa Margarita & Forrestal Rd,33.333585,-117.327735,,22063,0,,1,F-S/B,navhos,,Santa Margarita&Forrestal
22064,Santa Margarita & Lake O'Neill,33.325236,-117.325921,,22064,0,,2,N-S/B,,,Santa Margarita&Lake O'Neill
22065,Vandegrift Bl & Base Stables,33.289193,-117.306740,,22065,0,,2,M-Special_Loc,,,Vandegrift&Baseables
22066,El Camino Real & Cannon Rd,33.149055,-117.296461,,22066,0,,1,F-E/B,ecrcaS,,El Cmo Real&Cannon
22067,Vandegrift Bl & San Luis Rey Gate,33.279748,-117.298792,,22067,0,,2,N-S/B,,,Vandegrift&San Luis Rey Gate
22069,N Torrey Pines Rd & Torrey Pines State Beach,32.935521,-117.260572,,22069,0,,2,M-Special_Loc,,,N Try Pines & Try Pinesate Bch
22070,Stevens Av & Nardo Av (La Colonia Park),32.985903,-117.260068,,22070,0,,1,N-S/B,,,Stevens&Nardo (La Colonia Park)
22071,Stevens Av & Valley Av,32.983674,-117.259043,,22071,0,,1,N-S/B,,,Stevens&Vly
22073,N Torrey Pines Rd & State Beach Reserve,32.929042,-117.259684,,22073,0,,2,N-S/B,,,N Try Pines &ate Bch Reserve
22074,Melrose Dr & Cannon Rd (Ralphs),33.173425,-117.253305,,22074,0,,2,N-S/B,,,Melrose&Cannon (Ralphs)
22076,La Mirada Dr & Poinsettia Av,33.148236,-117.216337,,22076,0,,2,M-Street-E/B,mirpoE,,La Mirada&Poinsettia
22079,Escondido Bl & Washington Av,33.125087,-117.087664,,22079,0,,1,F-S/B,,,Escondido&Wshngtn
22081,Coast Hwy & Morse St,33.178545,-117.365123,,22081,0,,2,N-S/B,,,Coast Hwy & Morse
22082,Douglas Dr & Country Villas Apts,33.233061,-117.324869,,22082,0,,1,M-Street-S/B,,,Douglas&Country Villas Apts
22084,Vandegrift Bl & 13 St,33.304893,-117.312065,,22084,0,,1,N-S/B,van13S,,Vandegrift&13
22087,Hwy 101 & Cardiff Beach,33.013007,-117.279850,,22087,0,,2,M-Street-S/B,,,Hwy 101 & Cardiff Bch
22088,Stevens Av & San Rodolfo Dr,32.993286,-117.262108,,22088,0,,2,F-S/B,,,Stevens&San Rodolfo
22089,Stevens Av & Academy Dr,32.991042,-117.261434,,22089,0,,2,F-S/B,,,Stevens&Academy
22090,Stevens Av & Genevieve St,32.989089,-117.260619,,22090,0,,2,F-S/B,,,Stevens&Genevieve
22091,Valley Av & Waterford Dr,32.981163,-117.257948,,22091,0,,2,N-S/B,,,Vly&Waterford
22093,Melrose Dr & Shadowridge Meadows Apts,33.169329,-117.250768,,22093,0,,1,M-Street-E/B,,,Melrose & Shadowridge Meadows Apts
22094,N Torrey Pines Rd & NU System Drwy,32.910339,-117.244715,,22094,0,,2,N-S/B,,,N Try Pines & NU System
22096,Oak Dr & 1506 (MHP),33.221288,-117.221881,,22096,0,,1,M-Street-S/B,,,Oak&1506 (MHP)
22097,S Santa Fe Av & Bosstick Bl (2907),33.159148,-117.203274,,22097,0,,1,F-S/B,,,S Santa Fe&Bosstick (2907)
22098,Valley Pkwy & Citracado Pkwy,33.097473,-117.111124,,22098,0,,2,M-Special_Loc,,,Vly & Citracado
22103,Carlsbad Bl & Army Navy Academy,33.162486,-117.354128,,22103,0,,1,M-Special_Loc,,,Clsbd&Army Navy Academy
22104,Santa Margarita & Base Hospital,33.341459,-117.328749,,22104,0,,1,M-Special_Loc,,,Santa Margarita&Base Hospital
22106,Hwy 101 & Cardiff Beach,33.013181,-117.279598,,22106,0,,1,M-Special_Loc,,,Hwy 101 & Cardiff Bch
22112,S Mission Rd & Fairbrook Farms (4949),33.301283,-117.226025,,22112,0,,1,M-Street-N/B,,,S Mission&Fairbrook Farms (4949)
22118,Broadway & 1160,33.137208,-117.088235,,22118,0,,2,M-Street-N/B,,,Brdwy&1160
22122,Basilone Rd & Bldg 53332,33.377349,-117.479442,,22122,0,,2,N-W/B,cphorN,,Basilone&Bldg 53332
22123,Las Flores & Bldg 41398,33.288570,-117.441369,,22123,0,,2,N-S/B,cpfloS,,Las Flores&Bldg 41398
22128,Vandegrift Bl & Commissary,33.227132,-117.391738,,22128,0,,1,F-N/B,,,Vandegrift&Commissary
22129,Coast Hwy & Las Salinas MHP,33.180164,-117.366229,,22129,0,,0,F-N/B,,,Coast Hwy & Las Salinas MHP
22130,11th St & E Av,33.298248,-117.346140,,22130,0,,0,F-N/B,,,11th&E
22132,Santa Margarita Rd & Lake O'Neill Rd,33.325782,-117.325761,,22132,0,,2,F-N/B,,,Santa Margarita&Lake O'Neill
22134,Vandegrift Bl & 13th St (Main Px),33.303550,-117.311999,,22134,0,,1,N-N/B,,,Vandegrift&13th (Main Px)
22135,Vandegrift Bl & 14th St,33.306026,-117.311663,,22135,0,,2,N-N/B,,,Vandegrift&14th
22138,Sunset Dr & Sky Haven Ln,33.184461,-117.279093,,22138,0,,2,F-N/B,,,Sunset&Sky Haven
22139,Hwy 101 & Cliff St,32.997116,-117.273332,,22139,0,,1,F-N/B,,,Hwy 101 & Cliff
22142,Stevens Av & Nardo Av,32.986323,-117.259833,,22142,0,,1,F-N/B,,,Stevens&Nardo
22143,Valley Av & Highland Dr,32.980329,-117.257325,,22143,0,,1,F-N/B,,,Vly&Highland
22145,Melrose Dr & 1510 (Sr Heights Apt),33.168770,-117.249273,,22145,0,,2,M-Street-W/B,,,Melrose&1510 (Sr Heights Apt)
22147,La Mirada Dr & Poinsettia Av,33.148192,-117.215754,,22147,0,,2,F-W/B,mirpoW,,La Mirada&Poinsettia
22150,Hale Av & Parkdale Apts,33.111230,-117.107743,,22150,0,,2,N-N/B,,,Hale & Parkdale Apts
22151,9th Av & Windsor Pl,33.111446,-117.105560,,22151,0,,1,N-E/B,9thwiE,,9th & Windsor
22152,Carlsbad Village Dr & Highland Dr,33.165869,-117.338123,,22152,0,,1,N-E/B,,,Clsbd Vlge&Highland
22153,Mission Av & 3671 (Paul's Place),33.223968,-117.332984,,22153,0,,1,M-Street-E/B,,,Mission&3671 (Paul'sace)
22156,Sunset Dr & Escondido Bl,33.100961,-117.070012,,22156,0,,1,F-S/B,,,Sunset&Escondido
22157,E Vista Way & Monte Mar Rd,33.219177,-117.226274,,22157,0,,1,F-S/B,,,E Vista Way&Monte Mar
22162,Oceanside Blvd & El Camino Real W,33.201688,-117.333673,,22162,0,,1,N-E/B,,,Oceanside& El Cmo Real W
22165,Stuart Mesa & Las Pulgas Rd (Scout Camp),33.300161,-117.456070,,22165,0,,0,N-N/B,,,Stuart Mesa&Las Pulgas (Scout Camp)
22166,Las Flores & Boy Scout Camp,33.299999,-117.456105,,22166,0,,2,F-S/B,,,Las Flores&Boy Scout Camp
22168,Hwy 101 & Chesterfield Dr,33.020264,-117.282886,,22168,0,,2,F-N/B,,,Hwy 101 & Chesterfield
22169,Encinitas Bl & Vulcan Av,33.048751,-117.293200,,22169,0,,1,N-E/B,,,Encinitas&Vulcan
22171,Hwy 101 & Chesterfield Dr,33.018560,-117.282219,,22171,0,,1,F-S/B,,,Hwy 101 & Chesterfield
22172,Plaza St & Highway 101,32.991703,-117.272093,,22172,0,,1,N-E/B,plz101,,Pza&Highway 101
22193,Carlsbad Poinsettia Station,33.109718,-117.319024,,22193,0,cpsta,1,M-TC-Bus,cpsta,,Clsbd Poinsettia Sta
22198,Mission Rd & Aberdeen Av,33.145906,-117.177638,,22198,0,,1,M-Street-E/B,,,Mission&Aberdeen
22199,Mission Rd & Aberdeen Av,33.146227,-117.178445,,22199,0,,1,N-W/B,,,Mission&Aberdeen
22201,Stuart Mesa & Yamanaka,33.255260,-117.407895,,22201,0,,2,N-N/B,,,Stuart Mesa&Yamanaka
22203,Stuart Mesa & Yamanaka,33.255137,-117.407961,,22203,0,,2,F-S/B,,,Stuart Mesa&Yamanaka
22205,El Camino Real & Town Center Dr,33.063906,-117.262384,,22205,0,,1,N-N/B,,,El Cmo Real&Town Ctr
22206,El Camino Real & Camino Colony Apts,33.204915,-117.333729,,22206,0,,2,M-Special_Loc,,,El Cmo Real&Cmo Colony Apts
22210,Sycamore Av & Sycamore Hills Apts,33.159124,-117.221703,,22210,0,,2,M-Street-S/B,,,Sycamore&Sycamore Hills Apts
22211,Park Center Dr & Avenida Chelsea,33.143179,-117.233668,,22211,0,,2,M-Street-E/B,prkbuE,,Park Ctr &enida Chelsea
22212,Melrose Dr & County Complex,33.190924,-117.254088,,22212,0,,0,,vcourt,,Melrose & County Complex
22220,Valley Pkwy & La Terraza Bl,33.116059,-117.097622,,22220,0,,1,N-E/B,,,Vly&Laraza
22349,Vista Rey & Vista Bella,33.218362,-117.331296,,22349,0,,2,N-E/B,,,Vista Rey&Vista Bella
22350,Hwy 78 & Zoo Rd,33.095782,-117.009065,,22350,0,,2,N-E/B,,,Hwy 78 & Zoo
22351,Hwy 78 & Bandy Canyon Rd,33.091416,-116.953967,,22351,0,,2,F-E/B,,,Hwy 78 & Bandy Cyn
22352,Hwy 78 & Zoo Rd,33.095967,-117.009048,,22352,0,,2,F-W/B,,,Hwy 78 & Zoo
22353,Valley Pkwy & Juniper St,33.123853,-117.079793,,22353,0,,1,F-W/B,,,Vly&Juniper
22360,Melrose Dr & Hacienda Dr,33.191785,-117.253865,,22360,0,,1,F-S/B,,,Melrose&Hacienda
22361,Poinsettia Av & Business Park Dr,33.134777,-117.228662,,22361,0,,2,N-S/B,,,Poinsettia&Business Park
22362,Melrose Dr & Hacienda Dr,33.192818,-117.253353,,22362,0,,0,N-N/B,,,Melrose&Hacienda
22363,Poinsettia Av & Business Park Dr,33.134574,-117.228618,,22363,0,,2,F-E/B,,,Poinsettia&Business Park
22364,Sky Haven Ln & Sundown Ln,33.180699,-117.280029,,22364,0,,2,F-N/B,,,Sky Haven&Sundown
22371,El Camino Real & Garden View Rd (499),33.057641,-117.262482,,22371,0,,1,N-N/B,ecrgvr,,El Cmo Real & Garden View (499)
22372,El Camino Real & Tobria Ter,33.116090,-117.270552,,22372,0,,1,N-S/B,,,El Cmo Real & Tobria
22375,Rancho Santa Fe Rd & 7th St,33.043442,-117.235284,,22375,0,,2,N-N/B,,,Rcho Santa Fe&7th
22376,Rancho Santa Fe Rd & Calle Acervo,33.060702,-117.239538,,22376,0,,2,N-N/B,,,Rcho Santa Fe&Calle Acervo
22378,Camino De Los Coches & Maverick Way,33.075303,-117.231857,,22378,0,,1,F-E/B,lcchsE,,Cmo De Los Coches&Maverick Way
22381,Camino De Los Coches & Stagecoach Park,33.075042,-117.232674,,22381,0,,1,F-W/B,lcchsW,,Cmo De Los Coches&Stagecoach Park
22382,Rancho Santa Fe Rd & Avenida La Posta,33.060592,-117.239628,,22382,0,,1,F-E/B,,,Rcho Santa Fe&Avda La Posta
22383,Rancho Santa Fe Rd & Ranch View Ter,33.043788,-117.235394,,22383,0,,2,N-S/B,,,Rcho Santa Fe&Ranch View
22384,Mission Av & Rock Springs Rd,33.126626,-117.097037,,22384,0,,0,F-E/B,,,Mission&Rock Sprgs
22385,Mission Av & Rock Springs Rd,33.126582,-117.097821,,22385,0,,1,F-W/B,,,Mission&Rock Sprgs
22386,Mission Rd & Falcon Pl (456),33.144200,-117.153266,,22386,0,,1,N-W/B,,,Mission&Falcon (456)
22387,Las Posas Rd & Descanso Av,33.145649,-117.190504,,22387,0,,1,N-S/B,,,Las Posas&Descanso
22403,Vista Village Dr & Main St,33.204013,-117.239197,,22403,0,,1,F-E/B,,,Vista Vlge&Main
22404,Valley Pkwy & Avenida Del Diablo,33.102848,-117.105576,,22404,0,,2,F-S/B,valdiS,,Vly &enida Del Diablo
22407,9th Av & Windsor Pl,33.111561,-117.105361,,22407,0,,2,F-W/B,9thwiW,,9th & Windsor
22408,Hale Av & Casa Grande MHP,33.109907,-117.108705,,22408,0,,1,F-S/B,,,Hale&Casa Grande MHP
22415,Loker Av West & 2788,33.131993,-117.254890,,22415,0,,2,M-Special_Loc,,,Loker West&2788
22416,Loker Av West & 2731,33.134288,-117.257790,,22416,0,,0,M-Special_Loc,,,Loker West&2731
22417,Loker Av West & Palomar Airport Rd,33.131525,-117.259623,,22417,0,,2,N-W/B,lokpal,,Loker West&Palomar Airport
22418,Priestly Dr & Faraday Bl,33.134745,-117.275876,,22418,0,,1,F-S/B,,,Priestly&Faraday
22419,Priestly Dr & Rutherford Rd,33.133597,-117.274151,,22419,0,,2,N-S/B,prrutS,,Priestly&Rutherford
22420,Rutherford Rd & Pascal Ct,33.132243,-117.275476,,22420,0,,2,F-W/B,,,Rutherford&Pascal
22421,Rutherford Rd & Geiger Ct,33.131706,-117.279844,,22421,0,,2,F-W/B,,,Rutherford & Geiger
22422,Rutherford Rd & Farnsworth Ct,33.131697,-117.282599,,22422,0,,2,N-W/B,,,Rutherford & Farnsworth
22423,Aston Av & College Bl,33.132394,-117.288907,,22423,0,,2,N-W/B,astcoW,,Aston&Coll
22426,Aston Av & College Bl,33.132213,-117.288887,,22426,0,,2,F-E/B,astcoE,,Aston&Coll
22427,Rutherford Rd & Farnsworth Ct,33.131479,-117.282405,,22427,0,,2,F-E/B,,,Rutherford & Farnsworth
22428,Rutherford Rd & Geiger Ct,33.131546,-117.279818,,22428,0,,2,N-E/B,,,Rutherford & Geiger
22429,Rutherford Rd & Pascal Ct,33.132210,-117.274875,,22429,0,,2,F-E/B,,,Rutherford&Pascal
22430,Priestly Dr & Rutherford Rd,33.133816,-117.274137,,22430,0,,1,F-N/B,prrutN,,Priestly&Rutherford
22431,Priestly Dr & Faraday Av,33.134422,-117.275078,,22431,0,,2,N-N/B,,,Priestly&Faraday
22432,Thunder Dr & Jonathon St,33.196197,-117.288264,,22432,0,,1,F-S/B,,,Thunder&Jonathon
22442,Carlsbad Bl & Avenida Encinas,33.092002,-117.313826,,22442,0,,2,F-N/B,,,Clsbd&Avda Encinas
22443,Carlsbad Bl & Island Way,33.112170,-117.322454,,22443,0,,1,F-N/B,,,Clsbd&Island Way
22446,Carlsbad Bl & Island Way,33.111837,-117.322831,,22446,0,,1,N-S/B,,,Clsbd&Island Way
22449,Carlsbad Bl & Avenida Encinas,33.091826,-117.314365,,22449,0,,2,N-S/B,,,Clsbd&Avda Encinas
22461,Rancho Santa Fe Rd & Olivenhain Rd,33.067176,-117.245550,,22461,0,,1,F-S/B,,,Rcho Santa Fe&Olivenhain
22465,Lincoln Av & Goldenrod St,33.146852,-117.059960,,22465,0,,1,F-S/B,,,Lincoln&Goldenrod
22466,Lincoln Av & Daisy St,33.145313,-117.062521,,22466,0,,2,F-W/B,,,Lincoln&Daisy
22467,Lincoln Av & Rose St,33.142998,-117.066387,,22467,0,,2,F-W/B,,,Lincoln&Rose
22468,Lincoln Av & Rose St,33.143528,-117.065226,,22468,0,,1,F-E/B,,,Lincoln&Rose
22469,Lincoln Av & Begonia St,33.145075,-117.062656,,22469,0,,1,F-E/B,,,Lincoln&Begonia
22470,Lincoln Av & Goldenrod St,33.147112,-117.059224,,22470,0,,1,F-E/B,,,Lincoln&Goldenrod
22475,N Torrey Pines Rd & NU System Drwy,32.910518,-117.244322,,22475,0,,0,F-N/B,,,N Try Pines & NU System
22476,Jefferson St & Vista Way,33.182945,-117.339798,,22476,0,,1,F-S/B,,,Jefferson&Vista Way
22477,El Camino Real & Calle Barcelona,33.073704,-117.262544,,22477,0,,1,F-N/B,,,El Cmo Real&Calle Barcelona
22479,Douglas Dr & Vandegrift Bl,33.273407,-117.296831,,22479,0,,1,F-W/B,vadouW,,Douglas&Vandegrift
22480,Douglas Dr & Pilgrim Way,33.271552,-117.301959,,22480,0,,1,F-W/B,,,Douglas&Pilgrim Way
22481,Douglas Dr & Via Cibola,33.265579,-117.306893,,22481,0,,2,F-S/B,,,Douglas&Via Cibola
22482,Douglas Dr & Catalina Dr,33.256447,-117.313760,,22482,0,,1,F-W/B,,,Douglas&Catalina
22484,Douglas Dr & Festival Dr,33.253011,-117.318086,,22484,0,,2,N-W/B,,,Douglas&Festival
22485,Douglas Dr & Point Degada,33.249961,-117.322785,,22485,0,,2,F-S/B,,,Douglas&Pt Degada
22486,Douglas Dr & Westport Dr,33.247147,-117.322751,,22486,0,,2,F-S/B,,,Douglas&Westport
22487,El Camino Real & Calle Barcelona,33.072752,-117.262754,,22487,0,,1,F-S/B,,,El Cmo Real&Calle Barcelona
22488,El Camino Real & Leucadia Bl,33.067083,-117.262512,,22488,0,,1,F-S/B,ecrleS,,El Cmo Real&Leucadia
22489,Stuart Mesa & Ortiz,33.256353,-117.410261,,22489,0,,2,N-E/B,,,Stuart Mesa&Ortiz
22491,Morning View Dr & El Norte Pkwy,33.142758,-117.096625,,22491,0,,2,N-E/B,,,Morning View&El Norte
22496,Mission Av & Parish Way,33.230753,-117.316012,,22496,0,,0,F-W/B,,,Mission & Parish Way
22499,Town Center North & Walmart,33.241762,-117.292888,,22499,0,,1,M-Special_Loc,towncn,,Town Ctr North&Walmart
22503,Palomar Airport Rd & Paseo Del Norte,33.121884,-117.318374,,22503,0,,1,F-E/B,paspal,,Palomar Airport&Paseo Del Norte
22504,Palomar Airport Rd & Armada Dr,33.121823,-117.313099,,22504,0,,2,F-E/B,pararE,,Palomar Airport&Armada
22506,Palomar Airport Rd & Hidden Valley Rd,33.123494,-117.305511,,22506,0,,2,F-E/B,palhid,,Palomar Airport&Hidden Vly
22507,Aston Av & Rutherford Rd,33.131968,-117.284651,,22507,0,,2,N-E/B,,,Aston&Rutherford
22508,Palomar Airport Rd & Aviara Pkwy,33.123884,-117.301077,,22508,0,,0,F-E/B,,,Palomar Airport&Aviara
22509,Palomar Airport Rd & Palomar Oaks Way,33.120083,-117.289975,,22509,0,,0,F-E/B,,,Palomar Airport&Palomar Oaks Way
22511,Palomar Airport Rd & El Camino Real (East),33.129818,-117.264758,,22511,0,,1,F-E/B,,,Palomar Airport&El Cmo Real (East)
22515,Palomar Airport Rd & White Sands Dr,33.131353,-117.227485,,22515,0,,1,F-E/B,,,Palomar Airport&White Sands
22516,San Marcos Bl & Acacia Dr,33.132148,-117.219504,,22516,0,,2,F-E/B,,,San Marcos&Acacia
22517,San Marcos Bl & Viewpoint Dr,33.132761,-117.212083,,22517,0,,2,N-E/B,,,San Marcos&Viewpoint
22518,San Marcos Bl & Rancho Santa Fe Rd,33.131886,-117.209907,,22518,0,,2,N-E/B,smrsfE,,San Marcos&Rcho Santa Fe
22519,San Marcos Bl & Knights Realm,33.131221,-117.204194,,22519,0,,1,F-E/B,smarhs,,San Marcos&Knights Realm
22520,San Marcos Bl & Discovery St,33.131377,-117.200484,,22520,0,,2,F-E/B,,,San Marcos&Discovery
22521,Las Posas Rd & San Marcos Bl,33.134470,-117.194289,,22521,0,,1,F-N/B,possmb,,Las Posas&San Marcos
22522,Las Posas Rd & Linda Vista Dr,33.137808,-117.194115,,22522,0,,1,F-N/B,linlpr,,Las Posas&L Vsta
22524,Las Posas Rd & La Mirada Dr,33.139777,-117.193394,,22524,0,,1,F-S/B,,,Las Posas&La Mirada
22525,Las Posas Rd & Linda Vista Dr,33.136900,-117.194846,,22525,0,,1,F-S/B,,,Las Posas&L Vsta
22526,Las Posas Rd & San Marcos Bl,33.134398,-117.194516,,22526,0,,1,N-S/B,possmb,,Las Posas&San Marcos
22527,San Marcos Bl & Pacific St,33.132405,-117.197480,,22527,0,,2,F-W/B,,,San Marcos&Pcfc
22528,San Marcos Bl & Discovery St,33.131499,-117.201817,,22528,0,,2,F-W/B,,,San Marcos&Discovery
22529,San Marcos Bl & Knights Realm,33.131490,-117.204497,,22529,0,,1,N-W/B,smarhs,,San Marcos&Knights Realm
22530,San Marcos Bl & Rancho Santa Fe Rd,33.132241,-117.209999,,22530,0,,1,F-W/B,smrsfW,,San Marcos&Rcho Santa Fe
22531,San Marcos Bl & Viewpoint Dr,33.133184,-117.212920,,22531,0,,2,F-W/B,,,San Marcos&Viewpoint
22532,San Marcos Bl & Avenida Cielo,33.132793,-117.217514,,22532,0,,2,N-W/B,,,San Marcos&Avda Cielo
22533,Palomar Airport Rd & Business Park Dr,33.131320,-117.230187,,22533,0,,0,F-W/B,,,Palomar Airport&Business Park
22534,Palomar Airport Rd & Melrose Dr,33.130310,-117.247145,,22534,0,,2,F-W/B,,,Palomar Airport&Melrose
22538,Palomar Airport Rd & Loker Av West,33.130702,-117.260005,,22538,0,,1,F-W/B,,,Palomar Airport&Loker West
22539,Faraday Av & El Camino Real,33.136054,-117.274745,,22539,0,,0,F-W/B,,,Faraday&El Cmo Real
22540,Aston Av & Rutherford Rd,33.131974,-117.284951,,22540,0,,2,F-W/B,,,Aston&Rutherford
22542,Palomar Airport Rd & Camino Vida Roble,33.120173,-117.282373,,22542,0,,0,F-W/B,,,Palomar Airport & Cmo Vida Roble
22543,Palomar Airport Rd & Palomar Oaks Way,33.120808,-117.290866,,22543,0,,0,F-W/B,,,Palomar Airport&Palomar Oaks Way
22544,Palomar Airport Rd & College Bl,33.124304,-117.302128,,22544,0,,1,F-W/B,,,Palomar Airport&Coll
22545,Palomar Airport Rd & The Crossings Dr,33.123461,-117.306785,,22545,0,,1,F-W/B,palhid,,Palomar Airport&The Crossings
22548,Avenida Encinas & Palomar Airport Rd,33.120638,-117.324847,,22548,0,,1,F-S/B,,,Avda Encinas&Palomar Airport
22549,Avenida Encinas & 6200 (Opp Sewage Treatment),33.116490,-117.322256,,22549,0,,2,M-Special_Loc,,,Avda Encinas&6200 (Opp Sewage Treatment)
22550,Palomar Airport Rd & Melrose Dr,33.129842,-117.244313,,22550,0,,1,F-E/B,,,Palomar Airport&Melrose
22551,Palomar Airport Rd & Paseo Valindo,33.128781,-117.237538,,22551,0,,1,F-E/B,,,Palomar Airport&Paseo Valindo
22552,Palomar Airport Rd & Eagle Dr,33.128969,-117.238572,,22552,0,,1,F-W/B,,,Palomar Airport&Eagle
22556,Douglas Dr & Pala Rd,33.237604,-117.322812,,22556,0,,1,F-S/B,,,Douglas&Pala
22557,Mission Av & Frontier Dr,33.219554,-117.339708,,22557,0,,1,N-W/B,,,Mission&Frontier
22558,Mission Av & Frontier Dr,33.219919,-117.338750,,22558,0,,1,F-E/B,,,Mission&Frontier
22560,N Santa Fe Av & California Av,33.207931,-117.244830,,22560,0,,2,F-N/B,,,N Santa Fe&California
22561,N Santa Fe Av & Melrose Dr (2465),33.234709,-117.253186,,22561,0,,1,M-Street-W/B,,,N Santa Fe&Melrose (2465)
22563,Hwy 76 & Via Montellano,33.275436,-117.234289,,22563,0,,1,M-Street-S/B,,,Hwy 76 & Via Montellano
22564,N Santa Fe Av & Mesa Dr,33.241282,-117.275239,,22564,0,,1,F-E/B,,,N Santa Fe&Mesa
22565,N Santa Fe Av & Melrose Dr,33.235687,-117.260764,,22565,0,,1,F-E/B,,,N Santa Fe&Melrose
22568,Mission Av & Francesca Dr,33.231311,-117.302571,,22568,0,,2,N-N/B,,,Mission&Francesca
22574,College Bl & Salk Av,33.140656,-117.283681,,22574,0,,2,F-N/B,,,Coll&Salk
22575,Vulcan Av & G St,33.042742,-117.292251,,22575,0,,2,N-S/B,,,Vulcan&G
22589,Auto Park Way & Alpine Way,33.125190,-117.119055,,22589,0,,1,N-N/B,,,Auto Park Way & Alpine Way
22591,Avenida Ricardo & Knob Hill Park,33.137579,-117.120760,,22591,0,,0,N-N/B,,,Avda Ricardo&Knob Hill Park
22599,Valley Pkwy & Pennsylvania Av,33.126693,-117.075022,,22599,0,,1,F-E/B,,,Vly&Pennsylvania
22600,El Camino Real & Faraday Av,33.135797,-117.272762,,22600,0,,1,F-S/B,,,El Cmo Real&Faraday
22601,Loker Av West & El Fuerte St (2796),33.131501,-117.253132,,22601,0,,2,F-W/B,lokelW,,Loker West&El Fuerte (2796)
22608,Grand Av & Ash St,33.126836,-117.066550,,22608,0,,1,N-E/B,,,Grand&Ash
22609,Broadway & Hwy 78,33.132262,-117.086272,,22609,0,,0,F-S/B,,,Brdwy&Hwy 78
22620,S Mission Rd & Air Park Rd,33.352893,-117.246182,,22620,0,,1,F-S/B,fbhsS,,S Mission&Air Park
22622,E Vista Way & Barsby St,33.234727,-117.226105,,22622,0,,2,M-Street-N/B,,,E Vista Way&Barsby
22623,S Mission Rd & Stage Coach Ln,33.349844,-117.244330,,22623,0,,1,F-N/B,,,S Mission&Stage Coach
22624,S Mission Rd & Sterling Br,33.352497,-117.245582,,22624,0,,1,F-N/B,fbhsN,,S Mission&Sterling Br
22629,College Bl & Salk Av,33.140096,-117.283917,,22629,0,,2,N-W/B,,,Coll&Salk
22631,Douglas Dr & N River Rd,33.245953,-117.322586,,22631,0,,1,F-W/B,dounrN,,Douglas&N River
22632,Douglas Dr & Point Degada,33.250127,-117.322644,,22632,0,,1,N-N/B,,,Douglas&Pt Degada
22633,Douglas Dr & Festival Dr,33.253238,-117.317621,,22633,0,,1,F-N/B,,,Douglas&Festival
22635,Douglas Dr & Catalina Dr,33.257150,-117.312575,,22635,0,,1,F-N/B,,,Douglas&Catalina
22636,Douglas Dr & Via Cibola,33.266214,-117.306619,,22636,0,,2,F-N/B,,,Douglas&Via Cibola
22637,Douglas Dr & Via Malaguena,33.271357,-117.301983,,22637,0,,2,F-N/B,,,Douglas&Via Malaguena
22638,Seagaze Dr & Ditmar St,33.195803,-117.377397,,22638,0,,1,F-E/B,,,Seagaze&Ditmar
22641,Via Rancho Rd & Sabadell Dr,33.220589,-117.314620,,22641,0,,0,N-E/B,,,Via Rcho&Sabadell
22642,Via Rancho Rd & Ivey Ranch Rd,33.220281,-117.309689,,22642,0,,2,N-E/B,,,Via Rcho&Ivey Ranch
22647,Old Grove Rd & Red Maple Way,33.234926,-117.308435,,22647,0,,2,F-N/B,,,Old Grove&Red Maple Way
22648,Frazee Rd & Montrose Way,33.240690,-117.300616,,22648,0,,1,F-E/B,,,Frazee&Montrose Way
22649,Frazee Rd & Mission Av,33.237743,-117.296831,,22649,0,,1,N-S/B,,,Frazee&Mission
22650,College Blvd & Silver Bluff Dr,33.238933,-117.291608,,22650,0,,1,F-S/B,collsb,,Coll& Silveruff
22651,Frazee Rd & Oleander Dr,33.241148,-117.301407,,22651,0,,1,F-W/B,,,Frazee&Oleander
22652,Frazee Rd & Pala Rd,33.238813,-117.307452,,22652,0,,1,N-W/B,,,Frazee&Pala
22653,Old Grove Rd & Red Maple Way,33.234458,-117.308714,,22653,0,,2,N-S/B,,,Old Grove&Red Maple Way
22658,Via Rancho Rd & Mission Gate Dr,33.220522,-117.309948,,22658,0,,1,F-W/B,,,Via Rcho&Mission Gate
22663,Mission Av & Douglas Dr,33.227985,-117.325286,,22663,0,,1,F-E/B,,,Mission&Douglas
22664,Mission Av & Avenida Calafia,33.233814,-117.300250,,22664,0,,1,N-N/B,,,Mission&Avda Calafia
22665,Mission Av & Frazee Rd,33.237383,-117.296435,,22665,0,,1,N-N/B,,,Mission&Frazee
22666,Mission Av & Frazee Rd,33.237317,-117.296755,,22666,0,,1,F-W/B,,,Mission&Frazee
22667,Mission Av & Avenida Calafia,33.233736,-117.300521,,22667,0,,1,F-W/B,,,Mission&Avda Calafia
22668,Mission Av & Peyri Dr,33.230403,-117.319361,,22668,0,,2,F-W/B,,,Mission&Peyri
22689,Midway Dr & E Valley Pkwy,33.136907,-117.051300,,22689,0,,1,N-N/B,mivalN,,Midway&E Vly
22691,El Norte Pkwy & Kaile Ln,33.150185,-117.038280,,22691,0,,1,N-W/B,,,El Norte&Kaile
22695,Washington Av & Midway Dr,33.141323,-117.054267,,22695,0,,2,F-W/B,wasmid,,Wshngtn&Midway
22696,Washington Av & Begonia St,33.139109,-117.058004,,22696,0,,0,N-W/B,,,Wshngtn&Begonia
22697,Washington Av & Harding St,33.134756,-117.065069,,22697,0,,1,F-E/B,washaE,,Wshngtn&Harding
22698,Washington Av & Rose St,33.137521,-117.060439,,22698,0,,1,F-E/B,,,Wshngtn&Rose
22699,Washington Av & Begonia St,33.139119,-117.057739,,22699,0,,1,F-E/B,,,Wshngtn&Begonia
22703,El Norte Pkwy & Washington Av,33.150272,-117.043485,,22703,0,,1,F-E/B,,,El Norte&Wshngtn
22704,Valley Pkwy & Wanek Rd,33.145766,-117.036023,,22704,0,,2,F-S/B,,,Vly&Wanek
22706,El Norte Pkwy & Conway Dr,33.145760,-117.074371,,22706,0,,1,N-W/B,,,El Norte & Conway
22707,El Norte Pkwy & Ash St,33.143661,-117.078650,,22707,0,,1,F-W/B,,,El Norte&Ash
22708,El Norte Pkwy & Ivy St,33.140917,-117.086222,,22708,0,,1,F-W/B,,,El Norte&Ivy
22710,Ash St & Montros Pl,33.137640,-117.071469,,22710,0,,1,F-N/B,,,Ash&Montros
22711,Midway Dr & Oak Hill Dr,33.130662,-117.047424,,22711,0,,1,F-S/B,,,Midway&Oak Hill
22712,Lincoln Av & Awana Glen,33.140077,-117.071306,,22712,0,,1,F-W/B,,,Lincoln&Awana Glen
22713,Fig St & Lincoln Av (Kenwood Townhomes),33.134793,-117.078126,,22713,0,,2,M-Street-S/B,,,Fig&Lincoln (Kenwood Townhomes)
22714,Escondido Bl & El Norte Pkwy,33.138682,-117.092626,,22714,0,,1,F-S/B,enpesc,,Escondido&El Norte
22715,Escondido Bl & Decatur Way,33.136139,-117.092585,,22715,0,,1,N-S/B,,,Escondido&Decatur Way
22716,Escondido Blvd & Lincoln Av,33.131609,-117.090565,,22716,0,,1,F-S/B,,,Escondido& Lincoln
22717,Valley Pkwy & Elm St,33.127957,-117.072262,,22717,0,,1,F-E/B,,,Vly&Elm
22718,Valley Pkwy & Harding St,33.132184,-117.063021,,22718,0,,1,F-E/B,,,Vly&Harding
22719,Valley Pkwy & Rose St,33.133981,-117.059212,,22719,0,,1,F-E/B,,,Vly&Rose
22724,Main St & 11th St,33.041450,-116.869776,,22724,0,,1,N-S/B,,,Main&11th
22725,Main St & 14th St,33.038474,-116.875220,,22725,0,,1,F-S/B,,,Main&14th
22726,Day St & Main St,33.035742,-116.881188,,22726,0,,1,M-Street-E/B,ramsta,,Day&Main
22727,Main St & 11th St,33.040831,-116.870443,,22727,0,,2,N-N/B,,,Main&11th
22740,Midway Dr & Oak Hill Dr,33.131490,-117.047801,,22740,0,,1,F-N/B,,,Midway&Oak Hill
22741,Valley Pkwy & Rose St,33.133935,-117.059805,,22741,0,,1,F-W/B,,,Vly&Rose
22742,Valley Pkwy & Harding St,33.131905,-117.064193,,22742,0,,1,F-W/B,,,Vly&Harding
22743,Valley Pkwy & Elm St,33.127835,-117.072968,,22743,0,,2,F-W/B,,,Vly&Elm
22750,Vandegrift Bl & Bldg 14117 (19th St),33.317659,-117.308884,,22750,0,,1,N-N/B,,,Vandegrift&Bldg 14117 (19th)
22751,Vandegrift Bl & Wire Mountain Rd,33.216782,-117.388620,,22751,0,,0,F-N/B,,,Vandegrift&Wire Mtn
22752,Valley Pkwy & Avenida Del Diablo,33.102395,-117.105414,,22752,0,,1,N-N/B,valdiN,,Vly&Avda Del Diablo
22756,Main St & Montecito Rd,33.037150,-116.877244,,22756,0,,2,M-Street-N/B,,,Main&Montecito
22757,Main St & Day St,33.034787,-116.881293,,22757,0,,1,F-S/B,,,Main&Day
22758,Auto Park Way & Mission Rd,33.129470,-117.122962,,22758,0,,1,F-N/B,apmsnN,,Auto Park Way & Mission
22759,Avenida Ricardo & Center Dr,33.137022,-117.121476,,22759,0,,1,N-S/B,ricctr,,Avda Ricardo&Ctr
22763,Valley Pkwy & 9th Av,33.109449,-117.103938,,22763,0,,1,N-E/B,val9th,,Vly & 9th
22764,Main St & Montecito Rd,33.037392,-116.877197,,22764,0,,2,M-Street-S/B,,,Main&Montecito
22765,Frazee Rd & Pala Rd,33.238766,-117.307152,,22765,0,,1,F-E/B,,,Frazee&Pala
22768,Carlsbad Bl & Ponto Rd,33.098936,-117.316791,,22768,0,,1,F-N/B,,,Clsbd&Ponto
22769,Carlsbad Bl & Breakwater Rd,33.106465,-117.320131,,22769,0,,1,F-N/B,,,Clsbd&Breakwater
22771,Carlsbad Blvd & Beach Tower 32,33.141388,-117.340708,,22771,0,,1,M-Special_Loc,,,Clsbd& Bch Tower 32
22772,Mesa Dr & Mission Av,33.208170,-117.358425,,22772,0,,1,N-W/B,,,Mesa&Mission
22773,Barnes St & Mission Av,33.201342,-117.366281,,22773,0,,1,F-S/B,,,Barnes&Mission
22774,Barnes St & Maxson St,33.199920,-117.365873,,22774,0,,1,N-S/B,,,Barnes&Maxson
22775,Barnes St & Maxson St,33.200046,-117.365723,,22775,0,,2,F-N/B,,,Barnes&Maxson
22776,Barnes St & Mission Av,33.201719,-117.366384,,22776,0,,1,N-N/B,,,Barnes&Mission
22777,Mission Av & 1863,33.203451,-117.365414,,22777,0,,1,M-Street-E/B,,,Mission&1863
22779,S Mission Rd & Winterhaven Rd,33.346162,-117.242078,,22779,0,,1,N-N/B,,,S Mission&Winterhaven
22780,S Mission Rd & Almond St,33.366458,-117.249855,,22780,0,,1,F-N/B,,,S Mission&Almond
22781,Vandegrift Bl & Papagallo Rd,33.278368,-117.297846,,22781,0,,2,F-N/B,,,Vandegrift&Papagallo
22782,Vandegrift Bl & Basilone Rd,33.305904,-117.342511,,22782,0,,2,F-S/B,,,Vandegrift&Basilone
22783,Pala Casino,33.363909,-117.085958,,22783,0,,1,M-Special_Loc,palcas,,Pala Casino
22784,Pala Mission Rd & Portillo Rd,33.364849,-117.084286,,22784,0,,1,N-E/B,,,Pala Mission & Portillo
22785,Pala Mission Rd & Mission St,33.365163,-117.074917,,22785,0,,1,F-E/B,,,Pala Mission & Mission
22786,Pala Mission Rd & Temecula Rd,33.365073,-117.072192,,22786,0,,1,N-E/B,,,Pala Mission & Temecula
22787,Main St & 14th St,33.038898,-116.873925,,22787,0,,2,M-Street-N/B,,,Main&14th
22788,Hwy 78 & Bandy Canyon Rd,33.091706,-116.954069,,22788,0,,2,N-W/B,,,Hwy 78 & Bandy Cyn
22790,Old Grove Rd & Frazee Rd,33.236877,-117.309002,,22790,0,,1,N-N/B,,,Old Grove&Frazee
22791,Old Grove Rd & Frazee Rd,33.236542,-117.309095,,22791,0,,2,F-S/B,,,Old Grove&Frazee
22792,Mission Av & Valley Heights Dr,33.232307,-117.300988,,22792,0,,1,F-N/B,,,Mission&Vly Heights
22793,S Mission Rd & Fairbrook Farms (4949),33.302380,-117.226493,,22793,0,,1,M-Street-S/B,,,S Mission&Fairbrook Farms (4949)
22794,Valley Pkwy & Target,33.113994,-117.100979,,22794,0,,1,M-Street-E/B,vpauto,,Vly&Target
22795,Valley Pkwy & Home Depot Center,33.108920,-117.104560,,22795,0,,1,M-Street-S/B,val9th,,Vly&Home Depot Ctr
22796,Marron Rd & El Camino Real (2375),33.177246,-117.328369,,22796,0,,2,F-W/B,,,Marron&El Cmo Real (2375)
22805,Olivenhain Rd & Camino Alvaro,33.068474,-117.246815,,22805,0,,1,F-W/B,,,Olivenhain&Cmo Alvaro
22806,Olivenhain Rd & Amargosa Dr,33.067198,-117.255818,,22806,0,,0,F-W/B,,,Olivenhain&Amargosa
22807,Olivenhain Rd & El Camino Real,33.067666,-117.261065,,22807,0,,2,N-W/B,leuecr,,Olivenhain&El Cmo Real
22815,Harding St & Carlsbad Village Dr,33.162461,-117.344931,,22815,0,,2,F-N/B,,,Harding&Clsbd Vlge
22821,Highland Dr & Tamarack Av,33.155674,-117.330918,,22821,0,,0,N-W/B,,,Highland&Tamarack
22822,Highland Dr & Tamarack Av,33.155813,-117.331167,,22822,0,,0,F-E/B,,,Highland&Tamarack
22828,Armada Dr & Fleet St North,33.131301,-117.317518,,22828,0,,1,F-N/B,armleN,,Armada&Fleet North
22829,Armada Dr & Fleet St North,33.131020,-117.318319,,22829,0,,1,F-S/B,armleS,,Armada&Fleet North
22830,Armada Dr & Fleet St South,33.125876,-117.316154,,22830,0,,1,F-N/B,armfle,,Armada&Fleet South
22831,Armada Dr & Fleet St South,33.125575,-117.316151,,22831,0,,1,N-E/B,armfle,,Armada&Fleet South
22832,Avenida Encinas & 6200,33.117052,-117.322299,,22832,0,,1,M-Special_Loc,,,Avda Encinas&6200
22833,Leucadia Bl & Sidonia St,33.065148,-117.280077,,22833,0,,1,F-E/B,,,Leucadia&Sidonia
22834,Leucadia Bl & Sidonia St,33.065280,-117.281430,,22834,0,,1,F-W/B,,,Leucadia&Sidonia
22835,Leucadia Bl & Town Center Pl,33.067714,-117.264256,,22835,0,,1,F-E/B,,,Leucadia&Town Ctr
22836,Leucadia Bl & Town Center Pl,33.068174,-117.265344,,22836,0,,0,F-W/B,,,Leucadia&Town Ctr
22837,Olivenhain Rd & El Camino Real,33.067398,-117.261548,,22837,0,,1,F-E/B,leuecr,,Olivenhain&El Cmo Real
22838,Olivenhain Rd & Amargosa Dr,33.066954,-117.255525,,22838,0,,1,N-E/B,,,Olivenhain&Amargosa
22839,Santa Fe Dr & Mackinnon Av,33.036198,-117.275802,,22839,0,,1,F-E/B,,,Santa Fe&Mackinnon
22840,Santa Fe Dr & Balour Dr,33.036180,-117.268672,,22840,0,,2,N-E/B,,,Santa Fe&Balour
22842,Santa Fe Dr & Monterey Vista Way,33.036342,-117.267490,,22842,0,,2,F-W/B,,,Santa Fe & Monterey Vista Way
22843,Santa Fe Dr & Bonita Dr,33.036344,-117.274094,,22843,0,,2,F-W/B,,,Santa Fe&Bonita
22844,Santa Fe Dr & Gardena Rd,33.036361,-117.279664,,22844,0,,1,N-W/B,,,Santa Fe & Gardena
22875,Emerald Dr & West Dr,33.191068,-117.279448,,22875,0,,1,F-N/B,emwesN,,Emerald&West
22876,Emerald Dr & West Dr,33.190904,-117.279629,,22876,0,,1,N-S/B,emwesS,,Emerald&West
22877,Emerald Dr & Promanade Pl,33.194471,-117.279410,,22877,0,,2,F-N/B,,,Emerald&Promanade
22895,San Marcos Bl & Via Vera Cruz,33.134766,-117.188566,,22895,0,,1,F-W/B,smvvcW,,San Marcos&Via Vera Cruz
22896,San Marcos Bl & Bent Av (844),33.136158,-117.183335,,22896,0,,1,F-W/B,,,San Marcos&Bent (844)
22905,Carlsbad Village Dr & Highland Dr (E),33.166500,-117.337297,,22905,0,,1,N-W/B,,,Clsbd Vlge&Highland (E)
22906,Emerald Dr & Lewis St,33.195836,-117.279586,,22906,0,,2,N-S/B,,,Emerald&Lewis
22911,San Marcos Bl & Pacific St,33.132387,-117.196579,,22911,0,,0,F-E/B,,,San Marcos&Pcfc
22914,Las Posas Rd & Grand Av,33.143343,-117.191219,,22914,0,,1,F-N/B,,,Las Posas&Grand
22915,Las Posas Rd & Grand Av,33.142559,-117.192000,,22915,0,,0,F-S/B,,,Las Posas&Grand
22916,San Marcos Bl & Avenida De Las Rosas,33.132187,-117.221119,,22916,0,,2,F-W/B,,,San Marcos&Avda dl Rosas
22917,Palomar Airport Rd & Armada Dr,33.122129,-117.311744,,22917,0,,2,N-W/B,pararW,,Palomar Airport&Armada
22920,Auto Park Wy & Ross Dr,33.126501,-117.121538,,22920,0,,2,F-E/B,,,Auto Park&Ross
22921,Auto Park Wy & Ross Dr,33.126712,-117.121481,,22921,0,,0,N-W/B,,,Auto Park&Ross
22922,Rancho Santa Fe Rd & O.M.W.D.,33.067261,-117.245288,,22922,0,,2,F-N/B,,,Rcho Santa Fe&O.M.W.D.
22923,Craven Rd & Rush Dr,33.127260,-117.167441,,22923,0,,0,F-E/B,,,Craven&Rush
22925,Monroe St & Carlsbad HS Stadium,33.165665,-117.329145,,22925,0,,1,F-S/B,,,Monroe & Clsbd HSadium
22929,College Bl & Aston Av,33.132290,-117.289818,,22929,0,,2,F-S/B,colast,,Coll&Aston
22930,Douglas Dr & Teal Way,33.273007,-117.298309,,22930,0,,1,F-E/B,,,Douglas&Teal Way
22931,College Bl & Palomar Airport Rd,33.125400,-117.301169,,22931,0,,2,F-N/B,,,Coll&Palomar Airport
22937,Frazee Rd & Hwy 76,33.239698,-117.298907,,22937,0,,2,F-N/B,,,Frazee & Hwy 76
22940,Mission Av & Rancho Del Oro Dr,33.229988,-117.319843,,22940,0,,1,N-E/B,,,Mission & Rcho Del Oro
22941,Oceanside Blvd & Melrose Dr,33.219965,-117.260478,,22941,0,,1,N-E/B,osdmeE,,Oceanside& Melrose
22942,Poinsettia Av & Activity Dr,33.143356,-117.217012,,22942,0,,2,F-S/B,,,Poinsettia&Activity
22943,Melrose Dr & Cannon Rd,33.172207,-117.252204,,22943,0,,2,F-N/B,,,Melrose&Cannon
22947,Oceanside Blvd & Corporate Centre Dr,33.204039,-117.306104,,22947,0,,1,F-W/B,,,Oceanside& Corporate Centre
22953,Grand Av & Harding St,33.129727,-117.059822,,22953,0,,1,N-W/B,,,Grand&Harding
22954,Midway Dr & E Valley Pkwy,33.136569,-117.051316,,22954,0,,1,F-S/B,mivalS,,Midway&E Vly
22955,Hwy 76 & Lazy H Dr,33.293426,-116.969381,,22955,0,,2,N-E/B,,,Hwy 76 & Lazy H
24000,Avenida De La Plata & Avenida Del Oro,33.208992,-117.293672,,24000,0,,1,F-E/B,,,Avda De Laata&Avda Del Oro
24001,Avenida Del Oro & Avenida De La Plata,33.208342,-117.293742,,24001,0,,1,F-S/B,,,Avda Del Oro&Avda De Laata
24002,Avenida De La Plata & Plaza Real (South),33.210492,-117.291260,,24002,0,,1,M-Street-E/B,,,Avda De Laata & Pza Real (South)
24004,Avenida De La Plata & College Blvd,33.213045,-117.288772,,24004,0,,2,F-W/B,,,Avda De Laata & Collvd
24006,College Blvd & Old Grove Rd,33.217645,-117.287578,,24006,0,,2,,,,Coll& Old Grove
24007,College Blvd & Old Grove Rd,33.216634,-117.287284,,24007,0,,2,F-S/B,,,Coll& Old Grove
24008,College Blvd & Avenida Empressa,33.222425,-117.290567,,24008,0,,1,F-N/B,,,Coll&enida Empressa
24009,College Blvd & Avenida Empressa,33.221621,-117.290390,,24009,0,,1,F-S/B,,,Coll&enida Empressa
24010,College Blvd & Mesa Dr,33.225554,-117.292531,,24010,0,,1,F-N/B,,,Coll& Mesa
24011,College Blvd & Mesa Dr,33.224753,-117.292357,,24011,0,,1,F-S/B,,,Coll& Mesa
24012,College Blvd & Frazee Rd,33.234748,-117.292492,,24012,0,,1,N-N/B,,,Coll& Frazee
24013,College Blvd & Frazee Rd,33.236358,-117.293049,,24013,0,,1,F-S/B,,,Coll& Frazee
24014,Oceanside Blvd & Avenida Del Oro,33.206246,-117.288844,,24014,0,,1,N-W/B,osdorW,osdorE,Oceanside&enida Del Oro
24015,College Blvd & Oceanside Blvd,33.206203,-117.285115,,24015,0,,2,F-S/B,,,Coll& Oceansidevd
24025,El Norte Pkwy & Ash St,33.144272,-117.076867,,24025,0,,1,F-E/B,,,El Norte&Ash
24026,El Norte Pkwy & Conway Dr,33.146322,-117.072649,,24026,0,,1,F-E/B,,,El Norte & Conway
24027,El Norte Pkwy & Rose St,33.147460,-117.070333,,24027,0,,1,N-E/B,,,El Norte&Rose
24028,El Norte Pkwy & Donald Way,33.149606,-117.065370,,24028,0,,2,M-Street-E/B,,,El Norte & Donald Way
24043,Marron Rd & El Camino Real (2375),33.176725,-117.329447,,24043,0,,2,M-Street-E/B,,,Marron&El Cmo Real (2375)
24044,Carlsbad Village Dr & Tamarack Av,33.167402,-117.299764,,24044,0,,2,F-E/B,,,Clsbd Vlge&Tamarack
24045,Carlsbad Village Dr & Glasgow Dr,33.167908,-117.298028,,24045,0,,2,F-E/B,,,Clsbd Vlge&Glasgow
24046,College Bl & Carlsbad Village Dr,33.168717,-117.295062,,24046,0,,2,F-N/B,,,Coll&Clsbd Vlge
24047,College Bl & Tamarack Av (South),33.171120,-117.292987,,24047,0,,1,F-N/B,,,Coll&Tamarack (South)
24048,College Bl & Tamarack Av (North),33.174322,-117.291863,,24048,0,,1,F-N/B,,,Coll&Tamarack (North)
24049,Lake Bl & College Bl,33.178743,-117.293021,,24049,0,,2,F-E/B,lakcol,,Lake&Coll
24050,College Blvd & Marron Rd,33.177895,-117.293994,,24050,0,,2,F-S/B,collak,,Coll& Marron
24051,College Bl & Tamarack Av (North),33.173311,-117.292450,,24051,0,,1,F-S/B,,,Coll&Tamarack (North)
24052,College Bl & Tamarack Av (South),33.170290,-117.293988,,24052,0,,1,F-S/B,,,Coll&Tamarack (South)
24053,Carlsbad Village Dr & College Bl,33.168225,-117.296356,,24053,0,,2,F-W/B,,,Clsbd Vlge&Coll
24054,Carlsbad Village Dr & Harwich Dr,33.167808,-117.299261,,24054,0,,2,F-W/B,,,Clsbd Vlge & Harwich
24074,Highland Dr & Magnolia St,33.157211,-117.331888,,24074,0,,2,N-N/B,,,Highland&Magnolia
24075,Highland Dr & Magnolia St,33.157177,-117.332028,,24075,0,,2,F-S/B,,,Highland&Magnolia
24083,Craven Dr & Twin Oaks Valley Rd,33.127229,-117.164466,,24083,0,,2,F-E/B,,,Craven&Twin Oaks Vly
24084,Las Posas Rd & Los Vallecitos Bl,33.146162,-117.189849,,24084,0,,1,F-E/B,,,Las Posas&Los Vallecitos
24086,Citrus Av & Valley Pkwy,33.140317,-117.043945,,24086,0,,2,F-S/B,,,Citrus & Vly
24087,Carlsbad Bl & Breakwater Rd,33.104952,-117.319670,,24087,0,,2,F-S/B,,,Clsbd&Breakwater
24088,Rancho Santa Fe Rd & Camino Junipero,33.087897,-117.225504,,24088,0,,1,F-E/B,,,Rcho Santa Fe&Cmo Junipero
24089,Rancho Santa Fe Rd & Camino Junipero,33.087094,-117.226341,,24089,0,,1,F-W/B,,,Rcho Santa Fe&Cmo Junipero
24107,Faraday Av & Cannon Rd,33.138721,-117.306688,,24107,0,,2,F-E/B,canfar,,Faraday&Cannon
24108,Faraday Av & 1525,33.136520,-117.295019,,24108,0,,2,M-Street-E/B,,,Faraday&1525
24109,Faraday Av & 1620,33.139201,-117.293152,,24109,0,,2,F-E/B,,,Faraday&1620
24110,Faraday Av & Newton Dr (1675),33.137964,-117.290677,,24110,0,,2,M-Street-E/B,,,Faraday&Newton (1675)
24114,Faraday Av & College Bl,33.135799,-117.286211,,24114,0,,2,F-W/B,,,Faraday&Coll
24115,Faraday Av & Newton Dr,33.138399,-117.290812,,24115,0,,2,F-W/B,,,Faraday&Newton
24116,Faraday Av & 1610,33.139359,-117.293187,,24116,0,,2,M-Street-W/B,,,Faraday&1610
24117,Faraday Av & 1530,33.136637,-117.295255,,24117,0,,2,M-Street-W/B,,,Faraday&1530
24118,Faraday Av & Whitman Way,33.138350,-117.306008,,24118,0,,2,N-W/B,canfar,,Faraday&Whitman Way
24127,Camino Vida Roble & Palomar Airport Rd (East),33.119728,-117.281652,,24127,0,,2,F-E/B,,,Cmo Vida Roble&Palomar Airport (East)
24128,Camino Vida Roble & Corte Del Nogal,33.118356,-117.279909,,24128,0,,2,F-W/B,,,Cmo Vida Roble & Corte Del Nogal
24129,Camino Vida Roble & Las Palmas Dr,33.117866,-117.276832,,24129,0,,2,F-E/B,,,Cmo Vida Roble&Las Palmas
24130,Camino Vida Roble & Corte Del Abeto,33.118270,-117.276337,,24130,0,,2,F-W/B,,,Cmo Vida Roble&Corte Del Abeto
24131,El Camino Real & ViaSat West Campus,33.126995,-117.266189,,24131,0,,1,M-Street-S/B,ecrgaS,,El Cmo Real & ViaSat WCampus
24135,Loker Av West & Palomar Airport Rd,33.131297,-117.259392,,24135,0,,2,F-N/B,lokpal,,Loker West&Palomar Airport
24136,Loker Av West & 2748,33.134132,-117.257448,,24136,0,,2,M-Street-E/B,,,Loker West&2748
24137,Loker Av West & 2765,33.132734,-117.255626,,24137,0,,2,M-Street-E/B,,,Loker West&2765
24138,Loker Av West & El Fuerte St (2793),33.131353,-117.253258,,24138,0,,2,M-Street-E/B,lokelW,,Loker West&El Fuerte (2793)
24144,Rancho Santa Fe Rd & Camino De Los Coches,33.075847,-117.239426,,24144,0,,2,N-N/B,,,Rcho Santa Fe&Cmo De Los Coches
24145,Rancho Santa Fe Rd & San Elijo Rd,33.100607,-117.221783,,24145,0,,1,F-N/B,,,Rcho Santa Fe&San Elijo
24146,Rancho Santa Fe Rd & Melrose Dr,33.108482,-117.225181,,24146,0,,2,F-E/B,,,Rcho Santa Fe&Melrose
24147,Rancho Santa Fe Rd & Meadowlark Ranch Rd,33.109318,-117.225569,,24147,0,,1,F-W/B,,,Rcho Santa Fe&Meadowlark Ranch
24148,Rancho Santa Fe Rd & Camino De Los Coches,33.075267,-117.239959,,24148,0,,2,F-W/B,,,Rcho Santa Fe&Cmo De Los Coches
24150,Scholars Dr South & Revelle College Dr,32.872517,-117.241402,,24150,0,,2,F-E/B,,,Scholars South&Revelle Coll
24151,Scholars Dr South & Revelle College Dr,32.872662,-117.241527,,24151,0,,2,N-W/B,,,Scholars South&Revelle Coll
24153,San Rodolfo Dr & Stevens Av,32.993949,-117.260273,,24153,0,,1,M-Street-E/B,,,San Rodolfo&Stevens
24156,Douglas Dr & Teal Way,33.272878,-117.299554,,24156,0,,1,F-W/B,,,Douglas&Teal Way
24157,El Camino Real & Poinsettia Ln,33.110028,-117.269944,,24157,0,,1,F-N/B,,,El Cmo Real&Poinsettia
24158,El Camino Real & College Bl,33.143530,-117.283698,,24158,0,,2,F-N/B,,,El Cmo Real&Coll
24159,El Camino Real & Social Security Office,33.188559,-117.328103,,24159,0,,2,M-Street-N/B,,,El Cmo Real&Social Security Office
24161,Mission Rd & Mission Hills HS,33.142669,-117.141930,,24161,0,,2,M-Street-E/B,,,Mission & Mission Hills HS
24162,Hwy 101 & Dahlia Dr,32.987918,-117.270621,,24162,0,,1,F-N/B,,,Hwy 101 & Dahlia
24165,Sycamore Av & Grand Av,33.155138,-117.224656,,24165,0,,2,F-W/B,,,Sycamore&Grand
24166,Business Park & Scott St,33.139898,-117.230228,,24166,0,,1,N-N/B,,,Business Park&Scott
24167,Poinsettia Av & Corporate View,33.135140,-117.225061,,24167,0,,2,F-E/B,,,Poinsettia&Corporate View
24173,Melrose Dr & Park Center Dr,33.140861,-117.244055,,24173,0,,1,F-N/B,,,Melrose & Park Ctr
24178,Robelini Dr & El Valle Opulento,33.173144,-117.209994,,24178,0,,2,N-S/B,,,Robelini&El Valle Opulento
24188,Foothill Dr & E Vista Way,33.217253,-117.224919,,24188,0,,2,F-E/B,,,Foothill&E Vista Way
24189,Oak Dr & Foothill Dr,33.216761,-117.221769,,24189,0,,2,F-N/B,,,Oak&Foothill
24190,Oak Dr & Monte Mar Rd,33.219653,-117.221776,,24190,0,,1,F-N/B,,,Oak&Monte Mar
24191,Oak Dr & Palomar Pl,33.222797,-117.221771,,24191,0,,2,N-N/B,,,Oak&Palomar
24192,Arcadia Av & Laguna Ln,33.224966,-117.225468,,24192,0,,1,F-W/B,,,Arcadia&Laguna
24193,Bobier Dr & Marabou Ln,33.221348,-117.253283,,24193,0,,2,F-W/B,,,Bobier&Marabou
24194,Bobier Dr & Marabou Ln,33.221114,-117.253281,,24194,0,,1,F-E/B,,,Bobier&Marabou
24195,Ivey Ranch Rd & Justina Dr,33.217220,-117.310555,,24195,0,,2,N-S/B,mlkms,,Ivey Ranch&Justina
24196,Rancho Del Oro Dr & Mesa Dr,33.214166,-117.317768,,24196,0,,1,,rdomes,,Rcho Del Oro & Mesa
24198,Rancho Del Oro Dr & El Corazon Dr,33.209221,-117.312831,,24198,0,,1,F-S/B,,,Rcho Del Oro & El Corazon
24199,Rancho Del Oro Dr & Seagate Way (North),33.207433,-117.311556,,24199,0,,0,,vaclnE,,Rcho Del Oro & Seagate Way (North)
24200,Ocean Ranch Blvd & Corporate Centre Dr,33.212386,-117.303722,,24200,0,,0,,,,Ocean Ranch& Corporate Centre
24201,Corporate Center & Ocean Ranch Blvd,33.212251,-117.303325,,24201,0,,0,,,,Corporate Ctr & Ocean Ranchvd
24202,Corporate Centre Dr & Ocean Ranch Blvd,33.211728,-117.302779,,24202,0,,2,F-N/B,,,Corporate Centre & Ocean Ranchvd
24204,Corporate Centre & Oceanic Dr,33.206060,-117.305136,,24204,0,,1,F-N/B,,,Corporate Centre&Oceanic
24206,Marron Rd & Quarry Creek Center,33.177866,-117.296982,,24206,0,,1,N-E/B,qrycrk,,Marron&Quarry Creek Ctr
24207,Tamarack Av & Polly Ln,33.154571,-117.331354,,24207,0,,2,N-W/B,,,Tamarack&Polly
24211,El Camino Real Station,33.200011,-117.332188,,24211,0,,1,M-TC-Train-E/B,ecrsta,,El Cmo Real Sta
24213,Rancho Del Oro Station,33.202362,-117.311316,,24213,0,,1,M-TC-Train-N/B,rdosta,,Rcho Del Oro Sta
24246,Old Grove Rd & Ocean Ranch Bl,33.218627,-117.296537,,24246,0,,0,F-E/B,ogrado,,Old Grove&Ocean Ranch
24247,Avenida Del Oro & Old Grove Rd,33.216235,-117.294072,,24247,0,,1,F-S/B,,,Avda Del Oro&Old Grove
24248,Avenida Del Oro & US Post Office,33.211612,-117.295047,,24248,0,,2,N-S/B,,,Avda Del Oro&US Post Office
24276,Sycamore Av & University Dr,33.170449,-117.212195,,24276,0,,2,N-S/B,robssf,,Sycamore&Univ
24279,Via Rancho Rd & Rancho Del Oro,33.219718,-117.318129,,24279,0,,1,F-E/B,echsE,,Via Rcho&Rcho Del Oro
24280,Mission Rd & Barham Ln,33.131378,-117.124340,,24280,0,,1,F-E/B,,,Mission&Barham
24327,Rancho Del Oro Rd & Via Rancho Rd,33.220161,-117.319168,,24327,0,,1,F-N/B,echsW,,Rcho Del Oro & Via Rcho
24329,Avenida Del Oro & Windansea St,33.214110,-117.294054,,24329,0,,1,N-S/B,,,Avda Del Oro&Windansea
24330,Lake Bl & Esplanade St,33.179768,-117.290772,,24330,0,,1,N-W/B,,,Lake&Esplanade
24331,North Av & Melrose Dr,33.215516,-117.255271,,24331,0,,1,F-E/B,normeE,,North&Melrose
24334,Mission Av & Quince St,33.127833,-117.094016,,24334,0,,1,F-W/B,,,Mission&Quince
24335,Rancho Santa Fe Rd & San Elijo Rd,33.099415,-117.222113,,24335,0,,1,F-S/B,,,Rcho Santa Fe&San Elijo
24336,El Norte Pkwy & E Valley Pkwy,33.149583,-117.034484,,24336,0,,1,F-E/B,enpvaE,,El Norte&E Vly
24337,Arcadia Av & Oak Dr,33.224914,-117.222428,,24337,0,,2,F-W/B,,,Arcadia&Oak
24338,Las Posas Rd & La Mirada Dr,33.140440,-117.192739,,24338,0,,1,F-N/B,,,Las Posas&La Mirada
24339,Valley Pkwy & Beven Rd,33.155080,-117.031834,,24339,0,,1,F-S/B,,,Vly & Beven
24340,Avenida Encinas & 6030,33.119856,-117.324176,,24340,0,,2,N-N/B,,,Avda Encinas & 6030
24341,Vista Way & Italia Way,33.181205,-117.312916,,24341,0,,1,N-W/B,,,Vista Way&Italia Way
24346,Oceanside Blvd & Melrose Dr,33.220592,-117.259967,,24346,0,,2,F-W/B,osdmeW,,Oceanside& Melrose
24349,Rancho Santa Fe Rd & Avenida Soledad,33.096322,-117.222960,,24349,0,,1,F-E/B,,,Rcho Santa Fe&Avda Soledad
24350,Rancho Santa Fe Rd & Avenida Soledad,33.095937,-117.223806,,24350,0,,1,F-W/B,,,Rcho Santa Fe&Avda Soledad
24351,Rancho Santa Fe Rd & Capalina Rd,33.151616,-117.197388,,24351,0,,2,N-E/B,,,Rcho Santa Fe&Capalina
24352,S Santa Fe Av & Buena Creek Rd,33.173172,-117.207867,,24352,0,,1,N-N/B,bcstaW,,S Santa Fe&Buena Creek
24353,Corporate Centre Dr & Avenida De La Plata,33.209016,-117.301872,,24353,0,,2,F-N/B,,,Corporate Centre &enida De Laata
24361,Oceanside Bl & Ord Way,33.210765,-117.277619,,24361,0,,2,F-E/B,,,Oceanside&Ord Way
24362,Auto Park Way & Mission Rd,33.130225,-117.123164,,24362,0,,1,F-S/B,apmsnS,,Auto Park Way&Mission
24363,Mission Rd & Bennett Av,33.136046,-117.129963,,24363,0,,1,,,,Mission&Bennett
24366,Longhorn Dr & Crystal Ridge Way,33.163721,-117.249870,,24366,0,,1,M-Street-N/B,rbvhs,,Longhorn&Crystal Ridge Way
24367,2nd Av & Centre City Pkwy,33.118384,-117.085372,,24367,0,,1,F-E/B,,,2nd&Centre City
24369,El Camino Real & Camino Vida Roble,33.120412,-117.266862,,24369,0,,1,F-N/B,,,El Cmo Real&Cmo Vida Roble
24373,Mesa Dr & Rancho Del Oro,33.214706,-117.317065,,24373,0,,1,F-E/B,,,Mesa & Rcho Del Oro
24375,Mesa Dr & Pacifica Way,33.218658,-117.299873,,24375,0,,1,F-E/B,,,Mesa&Pcfca Way
24378,Cannon Rd & Grand Pacific Dr,33.134174,-117.314493,,24378,0,,1,N-E/B,canpaE,,Cannon & Grand Pcfc
24379,Cannon Rd & Grand Pacific Dr,33.134488,-117.314232,,24379,0,,1,F-W/B,canpaW,,Cannon&Grand Pcfc
24382,Barham Dr & La Moree Rd,33.134778,-117.154594,,24382,0,,1,N-E/B,csusta,,Barham&La Moree
24383,Valley View Casino,33.218748,-116.972844,,24383,0,,1,M-Street-N/B,vvcas,,Vly View Casino
24386,Thibodo St & Thibodo Ct,33.167874,-117.218647,,24386,0,,1,N-S/B,,,Thibodo&Thibodo
24801,Mission Rd & Brandon Rd,33.384479,-117.243689,,24801,0,,0,,,,Mission & Brandon
24802,Alvarado St & Brandon Rd,33.382092,-117.245254,,24802,0,,0,,,,Alvarado & Brandon
24803,Alvarado St & 388,33.382136,-117.248197,,24803,0,,0,,,,Alvarado & 388
24837,S Mission Rd & Fallbrook St,33.375522,-117.253813,,24837,0,,2,F-S/B,,,S Mission&Fallbrook
24840,Valley Center Rd & Mirar De Valle Rd,33.210940,-117.033480,,24840,0,,1,M-Street-N/B,,,Vly Ctr & Mirar De Valle
24842,Valley Center Rd & Woods Valley Rd,33.206240,-117.033514,,24842,0,,1,N-W/B,,,Vly Ctr&Woods Vly
24843,Grand Av & 1501 Grand Av,33.129693,-117.059648,,24843,0,,1,M-Street-E/B,,,Grand&1501 Grand
24844,Rancho Del Oro Dr & Oceanside Blvd,33.203714,-117.310938,,24844,0,,1,F-N/B,,,Rcho Del Oro & Oceansidevd
24845,S Main Av & Ammunition Rd,33.371600,-117.251211,,24845,0,,1,F-N/B,misamN,,S Main&Ammunition
24846,Buena Creek Station,33.173356,-117.207406,,24846,0,,1,M-Special_Loc,bcstaS,,Buena Creek Sta
24847,Primrose Av & Palmyra Dr,33.170520,-117.207733,,24847,0,,2,N-E/B,PrimPa,,Primrose&Palmyra
24848,Mission Rd & Las Posas Rd,33.149227,-117.190013,,24848,0,,1,F-W/B,,,Mission&Las Posas
24849,Mission Rd & Val Preda Rd,33.142003,-117.157008,,24849,0,,1,M-Special_Loc,,,Mission & Val Preda
24850,Lobelia Dr & Sycamore Av,33.169448,-117.212267,,24850,0,,1,F-S/B,,,Lobelia&Sycamore
24851,Ocean Ranch Blvd & Rancho Del Oro Dr,33.209801,-117.312311,,24851,0,,1,F-E/B,,,Ocean Ranch& Rcho Del Oro
24853,Rancho Santa Fe Rd & La Costa Av,33.081921,-117.236265,,24853,0,,1,F-E/B,rsflaE,,Rcho Santa Fe&La Costa
24854,Rancho Santa Fe Rd & La Costa Av,33.081143,-117.237522,,24854,0,,1,F-W/B,rsflaW,,Rcho Santa Fe&La Costa
24855,Basilone Rd & 4th St,33.351973,-117.408421,,24855,0,,2,N-S/B,cmppul,,Basilone&4th
24856,Las Pulgas & C St,33.342815,-117.409613,,24856,0,,2,N-W/B,cppulS,,Las Pulgas&C
24857,Las Pulgas Rd & A St,33.345392,-117.407948,,24857,0,,2,N-W/B,,,Las Pulgas&A
24858,El Camino Real & ViaSat East Campus,33.125290,-117.266067,,24858,0,,1,N-N/B,ecrgaN,,El Cmo Real & ViaSat ECampus
24859,El Camino Real & Town Garden Rd,33.122767,-117.266872,,24859,0,,1,F-S/B,,,El Cmo Real & Town Garden
24861,Mission Rd & Hill Av,33.384781,-117.253286,,24861,0,,1,F-W/B,,,Mission & Hill
24862,San Pasqual Valley Rd & 2nd Av,33.126131,-117.065128,,24862,0,,1,F-S/B,ashgra,,San Pasqual Vly & 2nd
24863,San Pasqual Valley Rd & Grand Av,33.126951,-117.065333,,24863,0,,1,M-Street-E/B,ashgra,,San Pasqual Vly & Grand
24864,Town Center North & Vons,33.240646,-117.292170,,24864,0,,1,N-S/B,towcnS,,Town Ctr N& Vons
24865,Ivy St & Vine St,33.383771,-117.250672,,24865,0,,1,F-W/B,ivyvin,,Ivy&Vine
24866,Main Av & Fallbrook St,33.375822,-117.251362,,24866,0,,2,N-N/B,,,Main&Fallbrook
24867,S Main Av & Elder St,33.379742,-117.251318,,24867,0,,1,N-N/B,,,S Main&Elder
24868,S Mission Rd & Beech St,33.378559,-117.253742,,24868,0,,2,N-S/B,,,S Mission&Beech
24869,Calle Platino & Avenida Del Oro,33.207240,-117.292142,,24869,0,,1,F-W/B,cplado,,Calleatino&Avda Del Oro
24870,Faraday Av & Rutherford Rd,33.134268,-117.283307,,24870,0,,1,F-E/B,,,Faraday&Rutherford
24871,Faraday Av & 2251,33.134160,-117.278181,,24871,0,,1,M-Street-E/B,,,Faraday & 2251
24872,Faraday Av & 2244,33.134170,-117.278875,,24872,0,,1,M-Street-W/B,,,Faraday & 2244
24873,Faraday Av & Rutherford Rd,33.134466,-117.282645,,24873,0,,1,M-Street-W/B,,,Faraday & Rutherford
24876,Emerald Dr & Wildflower Ct,33.199281,-117.279430,,24876,0,,1,F-N/B,,,Emerald&Wildflower
24877,Emerald Dr & Chasin St,33.199530,-117.279583,,24877,0,,1,F-S/B,,,Emerald&Chasin
24878,Seagate Way & VA Clinic,33.207163,-117.310786,,24878,0,,1,F-E/B,vaclnW,,Seagate Way&VA Clinic
24881,Emerald Dr & Silverfox Ln,33.203649,-117.279605,,24881,0,,2,F-E/B,,,Emerald&Silverfox
24882,Watson Way & Thibodo Rd,33.168308,-117.221681,,24882,0,,2,F-E/B,,,Watson Way&Thibodo
24883,Watson Way & Thibodo Rd,33.168203,-117.221851,,24883,0,,2,F-W/B,,,Watson Way&Thibodo
24884,Thibodo Rd & Thibodo Ct,33.167540,-117.218037,,24884,0,,2,N-W/B,,,Thibodo&Thibodo
24885,Thibodo Rd & Sycamore Av,33.166538,-117.217051,,24885,0,,2,N-E/B,,,Thibodo&Sycamore
24886,Thibodo Rd & Sycamore Av,33.166662,-117.216915,,24886,0,,2,F-W/B,,,Thibodo&Sycamore
24887,Del Dios Hwy & Bing Crosby Blvd,33.037745,-117.163522,,24887,0,,2,F-W/B,delbiW,,Del Dios Hwy & Bing Crosbyvd
24888,Del Dios Hwy & Bing Crosby Blvd,33.038056,-117.162147,,24888,0,,2,F-E/B,delbiE,,Del Dios Hwy & Bing Crosbyvd
24889,Rancho Del Oro Dr & Ocean Ranch Blvd,33.209892,-117.313056,,24889,0,,2,N-W/B,,,Rcho Del Oro & Ocean Ranchvd
24890,Rancho Del Oro Dr & Hwy 76,33.228729,-117.318127,,24890,0,,2,F-N/B,,,Rcho Del Oro & Hwy 76
24891,Los Arbolitos Blvd & Coconut Way,33.233148,-117.337508,,24891,0,,1,N-N/B,,,Los Arbolitos& Coconut Way
24893,Pala Rd & Fredricks Av,33.236153,-117.335342,,24893,0,,2,F-E/B,,,Pala&Fredricks
24895,Pala Rd & Christina Ct,33.237633,-117.329843,,24895,0,,1,F-E/B,,,Pala&Christina
24896,Pala Rd & Rio Vista Dr,33.237963,-117.324709,,24896,0,,1,F-E/B,,,Pala&Rio Vista
24897,Pala Rd & Douglas Dr,33.238151,-117.323188,,24897,0,,2,F-W/B,,,Pala&Douglas
24898,Pala Rd & Rio Vista Dr,33.238162,-117.325810,,24898,0,,2,F-W/B,,,Pala&Rio Vista
24899,Pala Rd & School Entrance,33.238032,-117.329414,,24899,0,,2,F-W/B,,,Pala&School Entrance
24901,Pala Rd & Oakleaf Dr,33.236356,-117.334831,,24901,0,,0,F-W/B,,,Pala & Oakleaf
24904,Los Arbolitos Bl & Orr St,33.233055,-117.337744,,24904,0,,2,F-W/B,,,Los Arbolitos&Orr
24905,Townsite Dr & Santa Fe Av,33.211296,-117.244557,,24905,0,,1,F-E/B,,,Townsite & Santa Fe
24906,Townsite Dr & Citrus Av,33.211534,-117.242225,,24906,0,,1,N-E/B,,,Townsite & Citrus
24907,Townsite Dr & Indian Rock Rd,33.212356,-117.238402,,24907,0,,2,N-E/B,TwnInd,,Townsite & Indian Rock
24908,Eucalyptus Av & Indiana Av,33.200766,-117.240426,,24908,0,,1,N-W/B,,,Eucalyptus&Indiana
24911,Townsite Dr & Newport Dr,33.211085,-117.235729,,24911,0,,2,F-W/B,towviW,,Townsite&Newport
24912,Townsite Dr & Rhea Pl,33.212687,-117.239865,,24912,0,,2,F-W/B,TwnRhe,,Townsite&Rhea
24913,Townsite Dr & N Citrus Av,33.211866,-117.241909,,24913,0,,1,N-W/B,,,Townsite&N Citrus
24915,Citracado Pkwy & Auto Park Wy,33.123515,-117.118517,,24915,0,,1,N-W/B,,,Citracado&Auto Park
24916,Citracado Pkwy & Stone Brewing,33.115964,-117.119455,,24916,0,,2,M-Street-S/B,,,Citracado &one Brewing
24917,Citracado Pkwy & Makena Medical Center,33.112610,-117.120314,,24917,0,,1,M-Street-S/B,,,Citracado&Makena Medical Ctr
24918,Andreasen Dr & 1040,33.110941,-117.118387,,24918,0,,1,M-Street-S/B,,,Andreasen&1040
24919,Andreasen Dr & Enterprise St,33.111701,-117.116200,,24919,0,,1,N-E/B,,,Andreasen & Enterprise
24920,Harmony Grove Rd & Symphony Pl,33.108986,-117.110922,,24920,0,,2,F-S/B,,,Harmony Grove & Symphony
24922,Andreasen Dr & 1031,33.111292,-117.117878,,24922,0,,1,M-Street-N/B,,,Andreasen&1031
24923,Citracado Pkwy & Makena Medical Center,33.113410,-117.119796,,24923,0,,1,M-Street-N/B,,,Citracado&Makena Medical Ctr
24924,Citracado Pkwy & Lupulin Ln,33.115497,-117.119166,,24924,0,,1,M-Street-N/B,,,Citracado & Lupulin
24926,El Norte Pkwy & Washington Av,33.150619,-117.044868,,24926,0,,1,F-W/B,,,El Norte&Wshngtn
24927,Red Blush Rd,33.149968,-117.052080,,24927,0,,1,F-W/B,,,Redush
24928,El Norte Pkwy & Lincoln Av,33.151561,-117.054798,,24928,0,,1,F-W/B,,,El Norte&Lincoln
24929,El Norte Pkwy & Estrada Glen,33.152011,-117.057665,,24929,0,,1,N-W/B,,,El Norte&Estrada Glen
24930,El Norte Pkwy & Midway Dr,33.150958,-117.062581,,24930,0,,1,F-W/B,,,El Norte&Midway
24931,El Norte Pkwy & Fig St,33.142481,-117.081004,,24931,0,,1,N-W/B,,,El Norte&Fig
24932,Broadway & Park Av,33.128006,-117.084408,,24932,0,,2,F-S/B,escsen,,Brdwy&Park
24933,Washington Av & Escondido Bl,33.126051,-117.086912,,24933,0,,1,M-Street-W/B,,,Wshngtn&Escondido
24934,Washington Av & Quince St,33.124778,-117.090681,,24934,0,,1,F-E/B,,,Wshngtn&Quince
24935,Washington Av & 245,33.125815,-117.087318,,24935,0,,1,M-Street-E/B,,,Wshngtn&245
24936,El Norte Pkwy & Broadway,33.139985,-117.088366,,24936,0,,2,F-E/B,brenpN,,El Norte&Brdwy
24937,El Norte Pkwy & Ivy St,33.140844,-117.085612,,24937,0,,1,F-E/B,,,El Norte&Ivy
24938,El Norte Pkwy & Fig St,33.142306,-117.080889,,24938,0,,2,F-E/B,,,El Norte&Fig
24939,El Norte Pkwy & Midway Dr,33.151205,-117.061348,,24939,0,,1,F-E/B,,,El Norte&Midway
24940,El Norte Pkwy & La Honda Dr,33.151695,-117.056884,,24940,0,,2,N-E/B,,,El Norte&La Honda
24941,El Norte Pkwy & Lincoln Av,33.150952,-117.054233,,24941,0,,2,N-W/B,,,El Norte&Lincoln
24942,Citrus Av,33.149466,-117.050936,,24942,0,,2,F-E/B,,,Citrus
24943,Mission Av & Old Grove Market Way,33.229955,-117.311264,,24943,0,,1,N-W/B,,,Mission & Old Grove Mrkt Way
24944,Encinitas Station Stall 3,33.045531,-117.292692,,24944,0,encsta,1,M-TC-Bus,encsta,,Encinitas Staall 3
24945,Encinitas Station Stall 2,33.045350,-117.292670,,24945,0,encsta,1,M-TC-Bus,encsta,,Encinitas Staall 2
24948,Encinitas Station Stall 5,33.045384,-117.292830,,24948,0,encsta,1,M-TC-Bus,encsta,,Encinitas Staall 5
24949,Encinitas Station Stall 6,33.045560,-117.292855,,24949,0,encsta,1,M-TC-Bus,encsta,,Encinitas Staall 6
24953,Carlsbad Village Station,33.160728,-117.351003,,24953,0,cvsta,1,M-TC-Bus,cvsta,,Clsbd Vlge Sta
24954,Carlsbad Village Station Stall 4,33.160922,-117.351168,,24954,0,cvsta,1,M-TC-Bus,cvsta,,Clsbd Vlge Staall 4
24955,Carlsbad Village Station Stall 5,33.161072,-117.351288,,24955,0,cvsta,1,M-TC-Bus,cvsta,,Clsbd Vlge Staall 5
24957,Citracado Pkwy & Health Center Drwy North,33.121130,-117.120097,,24957,0,,2,N-S/B,,,Citracado & Health Ctr North
24958,Palomar Medical Center,33.121909,-117.120843,,24958,0,,1,M-Special_Loc,palwes,,Palomar Medical Ctr
24959,N Torrey Pines Rd & John J Hopkins Dr,32.897798,-117.242093,,24959,0,,1,F-S/B,scripS,,N Try Pines & John J Hopkins
24960,Midway & Washington Av,33.141812,-117.054007,,24960,0,,2,F-N/B,wasmiW,,Midway&Wshngtn
24965,Rancho Del Oro Dr & Oceanside Blvd,33.204320,-117.311419,,24965,0,,1,N-S/B,,,Rcho Del Oro & Oceansidevd
24967,Valley Pkwy & Claudan Rd,33.095627,-117.112071,,24967,0,,2,N-W/B,,,Vly & Claudan
24968,Valley Pkwy & Claudan Rd,33.095308,-117.111926,,24968,0,,2,F-E/B,,,Vly & Claudan
24969,Midway Dr & E. Grand Ave,33.134722,-117.049937,,24969,0,,1,F-N/B,,,Midway&E. Grande
24970,E. Grand Av & Rose St,33.130740,-117.057587,,24970,0,,1,F-W/B,,,E. Grand&Rose
24971,Hwy 76 & Pala Transfer Station,33.363844,-117.059830,,24971,0,,2,M-Street-S/B,,,Hwy 76 & Pala Transfer Sta
24974,Bear Valley Pkwy & Oak Hill Dr,33.132255,-117.045067,,24974,0,,1,N-E/B,,,Bear Vly&Oak Hill
24978,Vista Way & Italia Way,33.180613,-117.313576,,24978,0,,2,N-E/B,,,Vista Way&Italia Way
24979,Casino Pauma,33.329271,-116.991986,,24979,0,,1,M-Special_Loc,paucas,,Casino Pauma
24981,Avenida De La Plata & Across from Genentech,33.208415,-117.299027,,24981,0,,1,M-Street-E/B,,,Avda De Laata&Across from Genentech
24982,Del Dios Hwy & Toyon Canyon Rd,33.061003,-117.124631,,24982,0,,2,F-W/B,,,Del Dios Hwy & Toyon Cyn
24983,Del Dios Hwy & Mt Israel Rd,33.063250,-117.124086,,24983,0,,2,F-E/B,,,Del Dios Hwy & Mt Israel
24986,Citracado Pkwy & Scenic Trail Way,33.096657,-117.102904,,24986,0,,1,N-N/B,delaac,,Citracado&Scenic Trail Way
24987,Cannon Rd & El Camino Real,33.150345,-117.296894,,24987,0,,1,F-E/B,,,Cannon&El Cmo Real
24988,College Bl & Cannon Rd,33.155699,-117.287500,,24988,0,,1,F-N/B,colcan,,Coll&Cannon
24989,El Camino Real & Palomar Airport Rd,33.130174,-117.266918,,24989,0,,2,F-N/B,,,El Cmo Real&Palomar Airport
24991,Cannon Rd & College Bl,33.154678,-117.287806,,24991,0,,1,F-W/B,cancol,,Cannon&Coll
24992,Naval Hospital Camp Pendleton,33.220387,-117.389374,,24992,0,,1,M-Special_Loc,nahosp,,Naval Hospital Camp Pendleton
24993,Arcadia Av & E Vista Way,33.224831,-117.225273,,24993,0,,1,F-S/B,arcviE,,Arcadia&E Vista Way
24995,College Blvd & Silver Bluff Dr,33.239720,-117.290342,,24995,0,,1,F-N/B,,,Coll& Silveruff
24996,Mission Rd & Marcos St,33.144734,-117.170597,,24996,0,,1,F-W/B,,,Mission&Marcos
24997,Olive Av & Plymouth Dr,33.204832,-117.250966,,24997,0,,2,F-W/B,,,Olive&Plymouth
24998,Eucalyptus Av & Crescent Dr,33.198155,-117.227352,,24998,0,,0,,,,Eucalyptus&Crescent
25002,San Luis Rey Transit Center  Stall 2,33.254522,-117.298539,,25002,0,slrtc,1,M-TC-Bus,slrtc,,San Luis Rey TC all 2
25003,San Luis Rey Transit Center  Stall 3,33.254510,-117.298316,,25003,0,slrtc,1,M-TC-Bus,slrtc,,San Luis Rey TC all 3
25004,San Luis Rey Transit Center  Stall 4,33.254495,-117.298094,,25004,0,slrtc,1,M-TC-Bus,slrtc,,San Luis Rey TC all 4
25005,San Luis Rey Transit Center  Stall 5,33.254478,-117.297881,,25005,0,slrtc,1,M-TC-Bus,slrtc,,San Luis Rey TC all 5
25008,San Luis Rey Transit Center  Stall 8,33.254333,-117.298049,,25008,0,slrtc,1,M-TC-Bus,slrtc,,San Luis Rey TC all 8
25009,San Luis Rey Transit Center  Stall 9,33.254348,-117.298272,,25009,0,slrtc,1,M-TC-Bus,slrtc,,San Luis Rey TC all 9
25010,San Luis Rey Transit Center  Stall 10,33.254363,-117.298481,,25010,0,slrtc,1,M-TC-Bus,slrtc,,San Luis Rey TC all 10
25013,El Camino  Real & Lisa St,33.151434,-117.303655,,25013,0,,1,F-S/B,,,El Cmo  Real&Lisa
25014,Andreasen Dr & Enterprise St,33.111957,-117.116227,,25014,0,,1,F-W/B,,,Andreasen&Enterprise
25016,Hwy 76 & Magee Rd,33.363774,-117.057136,,25016,0,,2,N-W/B,,,Hwy 76 & Magee
25038,Rancho Santa Fe Rd & Via Mercato,33.083845,-117.230690,,25038,0,,1,F-E/B,,,Rcho Santa Fe&Via Mercato
25040,Rancho Santa Fe Rd & Paseo Lupino,33.084017,-117.232013,,25040,0,,1,F-W/B,,,Rcho Santa Fe&Paseo Lupino
25042,Mission Av & Roymar Rd,33.215452,-117.345107,,25042,0,,1,F-E/B,,,Mission&Roymar
25043,Vandegrift Bl & Granite Pl,33.269758,-117.296463,,25043,0,,1,F-N/B,,,Vandegrift&Granite
25044,Carlsbad Blvd & Ponto Rd,33.098720,-117.317103,,25044,0,,2,N-S/B,,,Clsbd& Ponto
25045,Faraday Av & Van Allen Way,33.136728,-117.288647,,25045,0,,2,N-E/B,,,Faraday&Van Allen Way
25046,Melrose Dr & Breeze Hill Rd,33.187079,-117.253665,,25046,0,,1,F-S/B,,,Melrose&Breeze Hill
25047,Poinsettia Av & W Linda Vista Dr,33.144499,-117.216064,,25047,0,,1,F-E/B,,,Poinsettia & W L Vsta
25048,El Camino Real FS Cannon,33.149894,-117.297966,,25048,0,,0,,ecrcaN,,El Cmo Real FS Cannon
25049,El Camino Real & Cassia Rd,33.114615,-117.271131,,25049,0,,1,F-N/B,,,El Cmo Real & Cassia
25050,College Blvd & Faraday Av,33.135561,-117.285602,,25050,0,,0,F-N/B,,,Coll& Faraday
25051,Rancho Del Oro Dr & Seagate Way (South),33.205844,-117.311398,,25051,0,,2,F-N/B,,,Rcho Del Oro & Seagate Way (South)
25053,Avenida De La Plata & Avenida De Oro,33.208634,-117.295056,,25053,0,,0,F-W/B,,,Avda De Laata&Avda De Oro
25054,Lebon Dr & La Jolla Village Dr,32.870621,-117.223926,,25054,0,,0,F-S/B,,,Lebon & LJ Vlge
25055,S Santa Fe Av & Broadway,33.200655,-117.242669,,25055,0,,1,N-W/B,,,S Santa Fe & Brdwy
25056,Santa Fe Ave & Broadway,33.200402,-117.242762,,25056,0,,1,F-E/B,,,Santa Fee&Brdwy
25057,Rancho Santa Fe & 9th St,33.144944,-117.201126,,25057,0,,1,F-W/B,,,Rcho Santa Fe & 9th
25058,Lebon Dr & Nobel Dr,32.868777,-117.224714,,25058,0,,0,F-N/B,,,Lebon & Nobel
25059,Broadway & Mission Av,33.129977,-117.085316,,25059,0,,0,,,,Brdwy & Mission
25060,N Santa Fe Ave & Adobe Estates Dr,33.228659,-117.247849,,25060,0,,1,F-S/B,,,N Santa Fee&Adobe Estates
27000,Oceanside Transit Center,33.190875,-117.378350,,27000,0,,1,,SPROTC,octc,Oceanside TC
27001,Coast Hwy Station,33.181788,-117.368851,,27001,0,,0,,SPRCHS,,Coast Hwy Sta
27002,Crouch St Station,33.194612,-117.353514,,27002,0,,0,,SPRCSS,,Crouch Sta
27003,El Camino Real Station,33.199656,-117.332478,,27003,0,,0,,SPRECR,ecrsta,El Cmo Real Sta
27004,Rancho Del Oro Station,33.201544,-117.311231,,27004,0,,0,,SPRRDO,rdosta,Rcho Del Oro Sta
27005,College Blvd Station,33.204546,-117.288143,,27005,0,,0,,SPRCBS,osdorE,CollStation
27006,Melrose Dr Station,33.219553,-117.259087,,27006,0,,0,,SPRMRS,,Melrose Sta
27007,Vista Transit Center,33.202788,-117.244731,,27007,0,,0,,SPRVTC,visttc,Vista TC
27008,Civic Center - Vista Station,33.190535,-117.237476,,27008,0,,0,,SPREAS,,Civic Ctr - Vista Sta
27009,Buena Creek Station,33.173500,-117.207393,,27009,0,,0,,SPRBCS,,Buena Creek Sta
27010,Palomar College Station,33.146953,-117.185314,,27010,0,,0,,SPRPCC,palctc,Palomar Coll Sta
27011,San Marcos Civic Center Station,33.142267,-117.161995,,27011,0,,0,,SPRCCS,,San Marcos Civic Ctr Sta
27012,Cal State San Marcos Station,33.134771,-117.153585,,27012,0,,0,,SPRCSU,csusta,Calate San Marcos Sta
27013,Nordahl Rd Station,33.131112,-117.124154,,27013,0,,0,,SPRNRS,,Nordahl Sta
27014,Escondido Transit Center,33.118419,-117.092160,,27014,0,,0,,SPRETC,esctc,Escondido TC
27025,WEST RING RD & WEST RING RD,33.220637,-117.389979,,27025,0,,0,,nahosp,,WEST RING RD&WEST RING RD
28000,Oceanside Transit Center Platform 3,33.190552,-117.378206,C1,28000,0,,0,,CSTOTC,octc,Oceanside TCatform 3
28001,Carlsbad Village Station,33.161787,-117.351867,C1,28001,0,,0,,CSTCVS,cvsta,Clsbd Vlge Sta
28002,Carlsbad Poinsettia Station,33.109794,-117.319613,C1,28002,0,,0,,CSTCPS,cpsta,Clsbd Poinsettia Sta
28003,Encinitas Station,33.047927,-117.293357,C1,28003,0,,0,,CSTENC,encsta,Encinitas Sta
28004,Solana Beach Station,32.994933,-117.272046,C1,28004,0,,0,,CSTSBS,plz101,Solana Bch Sta
28005,Sorrento Valley Station,32.903369,-117.225677,C2,28005,0,,0,,CSTSVS,svsta,Sorrento Vly Sta
28006,San Diego - Old Town,32.755277,-117.199754,C3,28006,0,,0,,CSTSDO,oldttc,San Diego - Old Town
28007,San Diego - Santa Fe Depot,32.718870,-117.170070,C3,28007,0,,0,,CSTSDS,,San Diego - Santa Fe Depot
28100,Oceanside Transit Center,33.188560,-117.376487,C1,28100,0,,0,,CSTOTC,octc,Oceanside TC
28101,Carlsbad Village Station,33.160539,-117.350616,C1,28101,0,,0,,CSTCVS,cvsta,Clsbd Vlge Sta
28102,Carlsbad Poinsettia Station,33.107188,-117.318487,C1,28102,0,,0,,CSTCPS,cpsta,Clsbd Poinsettia Sta
28103,Encinitas Station,33.046285,-117.293125,C1,28103,0,,0,,CSTENC,encsta,Encinitas Sta
28104,Solana Beach Station,32.992200,-117.271459,C1,28104,0,,0,,CSTSBS,plz101,Solana Bch Sta
28105,Sorrento Valley Station,32.902257,-117.224498,C2,28105,0,,0,,CSTSVS,svsta,Sorrento Vly Sta
28106,San Diego - Old Town,32.753434,-117.199258,C3,28106,0,,0,,CSTSDO,oldttc,San Diego - Old Town
28107,San Diego - Santa Fe Depot,32.716895,-117.170069,C3,28107,0,,0,,CSTSDS,,San Diego - Santa Fe Depot
88962,VA Hospital,32.874894,-117.233477,,88962,0,,0,F-N/B,vilvah,,VA Hospital
88988,VA Hospital,32.874753,-117.233834,,88988,0,,0,F-S/B,vilvah,,VA Hospital
92020,Coast Hwy & Civic Center Dr,33.197516,-117.380767,,92020,0,,1,N-N/B,,,Coast Hwy & Civic Ctr
92021,Plaza Camino Real,33.178328,-117.336914,,92021,0,,1,M-Street-N/B,pcrtc,,Pza Cmo Real
92022,Plaza Camino Real Transit Center Stall 2,33.178329,-117.336735,,92022,0,,1,M-TC-Bus,pcrtc,,Pza Cmo Real TCall 2
92023,Plaza Camino Real Transit Center Stall 3,33.178331,-117.336539,,92023,0,,1,M-TC-Bus,pcrtc,,Pza Cmo Real TCall 3
92024,Plaza Camino Real Transit Center Stall 4,33.178327,-117.336372,,92024,0,,1,M-TC-Bus,pcrtc,,Pza Cmo Real TCall 4
92025,Plaza Camino Real Transit Center Stall 5,33.178334,-117.336185,,92025,0,,1,M-TC-Bus,pcrtc,,Pza Cmo Real TCall 5
92026,Plaza Camino Real Transit Center Stall 6,33.178264,-117.336283,,92026,0,,1,M-TC-Bus,pcrtc,,Pza Cmo Real TCall 6
92027,Plaza Camino Real Transit Center Stall 7,33.178279,-117.336482,,92027,0,,1,M-Street-W/B,pcrtc,,Pza Cmo Real TCall 7
92029,Vista Transit Center Stall 4,33.202954,-117.245093,,92029,0,visttc,1,M-TC-Bus,visttc,,Vista TCall 4
92030,Vista Transit Center Stall 5,33.203141,-117.245194,,92030,0,visttc,1,M-TC-Bus,visttc,,Vista TCall 5
92031,Vista Transit Center Stall 6,33.203246,-117.245283,,92031,0,visttc,1,F-N/B,visttc,,Vista TCall 6
92032,Vista Transit Center Stall 7,33.203375,-117.245383,,92032,0,visttc,1,M-TC-Bus,visttc,,Vista TCall 7
92033,Vista Transit Center Stall 8,33.203523,-117.245451,,92033,0,visttc,1,M-TC-Bus,visttc,,Vista TCall 8
92034,Vista Transit Center Stall 9,33.203700,-117.245532,,92034,0,visttc,1,F-N/B,visttc,,Vista TCall 9
92036,Vista Transit Center Stall 10,33.203828,-117.245593,,92036,0,visttc,0,F-N/B,visttc,,Vista TCall 10
92037,Palomar College Transit Center Stall 1,33.147694,-117.185682,,92037,0,palctc,1,M-TC-Bus,palctc,,Palomar Coll TCall 1
92038,Palomar College Transit Center Stall 2,33.147747,-117.185890,,92038,0,palctc,0,M-Street-W/B,palctc,,Palomar Coll TCall 2
92039,Palomar College Transit Center Stall 3,33.147802,-117.186092,,92039,0,palctc,1,M-TC-Bus,palctc,,Palomar Coll TCall 3
92040,Palomar College Transit Center Stall 4,33.147913,-117.185931,,92040,0,palctc,1,M-Street-E/B,palctc,,Palomar Coll TCall 4
92041,Palomar College Transit Center Stall 5,33.147850,-117.185732,,92041,0,palctc,1,M-Street-E/B,palctc,,Palomar Coll TCall 5
92044,Escondido Transit Center Stall 4,33.118741,-117.090442,,92044,0,esctc,1,M-Street-W/B,esctc4,esctc,Escondido TCall 4
92045,Escondido Transit Center Stall 5,33.118669,-117.090621,,92045,0,esctc,1,M-Street-W/B,esctc,,Escondido TCall 5
92046,Escondido Transit Center Stall 6,33.118711,-117.090915,,92046,0,esctc,0,M-Street-E/B,esctc,,Escondido TCall 6
92047,Escondido Transit Center Stall 7,33.118811,-117.091043,,92047,0,esctc,1,M-Street-E/B,esctc,,Escondido TCall 7
92048,Escondido Transit Center Stall 8,33.118973,-117.091084,,92048,0,esctc,1,M-Street-E/B,esctc,,Escondido TCall 8
92049,Escondido Transit Center Stall 9,33.119178,-117.090946,,92049,0,esctc,1,M-TC-Bus,esctc,,Escondido TCall 9
92050,Escondido Transit Center Stall 10,33.119240,-117.090652,,92050,0,esctc,0,M-Street-E/B,esctc,,Escondido TCall 10
92051,Escondido Transit Center Stall 11,33.119159,-117.090400,,92051,0,esctc,0,M-Street-E/B,esctc,,Escondido TCall 11
92052,Escondido Transit Center Stall 12,33.119093,-117.090092,,92052,0,esctc,0,M-Street-N/B,esctc,,Escondido TCall 12
92053,Escondido Transit Center Stall 13,33.119201,-117.089852,,92053,0,esctc,1,M-TC-Bus,esctc,,Escondido TCall 13
92054,Escondido Transit Center Stall 14,33.119353,-117.089765,,92054,0,esctc,1,M-Street-W/B,esctc,,Escondido TCall 14
92055,Escondido Transit Center Stall 15,33.119516,-117.089662,,92055,0,esctc,0,M-Street-W/B,esctc,,Escondido TCall 15
92090,Washington Av & Ash St,33.133499,-117.067187,,92090,0,,0,F-E/B,,,Wshngtn&Ash
92092,Mission Av & Broadway,33.130418,-117.084889,,92092,0,,1,F-E/B,,,Mission&Brdwy
92100,Valley Center Rd & Morningstar Rd,33.249497,-116.963190,,92100,0,,1,F-N/B,,,Vly Ctr&Morningstar
92102,Yarrow Dr & Camino Vida Roble (6351),33.120159,-117.273751,,92102,0,,2,N-S/B,,,Yarrow&Cmo Vida Roble (6351)
92122,Westfield North County,33.071112,-117.062915,,92122,0,,1,M-TC-Bus,ncfair,,Westfield NCounty
92123,Westfield North County,33.072164,-117.064548,,92123,0,,0,M-TC-Bus,ncfair,,Westfield NCounty
92124,Oceanside Transit Center Stall 2,33.193937,-117.379857,,92124,0,octc,0,M-TC-Bus,octc,,Oceanside TCall 2
92125,Oceanside Transit Center Stall 3,33.193787,-117.379744,,92125,0,octc,0,M-TC-Bus,octc,,Oceanside TCall 3
92127,Oceanside Transit Center Stall 4,33.193624,-117.379582,,92127,0,octc,1,M-TC-Bus,octc,,Oceanside TCall 4
92128,Oceanside Transit Center Stall 5,33.193487,-117.379465,,92128,0,octc,0,M-TC-Bus,octc,,Oceanside TCall 5
92131,Oceanside Transit Center Stall 8,33.193507,-117.379675,,92131,0,octc,1,M-TC-Bus,octc,,Oceanside TCall 8
92132,Oceanside Transit Center Stall 9,33.193655,-117.379791,,92132,0,octc,1,M-TC-Bus,octc,,Oceanside TCall 9
92133,Oceanside Transit Center Stall 10,33.193802,-117.379921,,92133,0,octc,1,M-TC-Bus,octc,,Oceanside TCall 10
92200,Vandegrift Bl & A St,33.302541,-117.344963,,92200,0,,1,F-W/B,22area,,Vandegrift&A
93229,Center Dr & Avenida Ricardo,33.135926,-117.121602,,93229,0,,1,F-E/B,,,Ctr&Avda Ricardo
93231,El Norte Pkwy & E Valley Pkwy,33.149833,-117.033990,,93231,0,,1,F-W/B,enpvaW,,El Norte&E Vly
93234,El Camino Real & Circle K,33.087286,-117.268791,,93234,0,,1,F-N/B,,,El Cmo Real & Cir K
93235,El Norte Pkwy & Rose St,33.148104,-117.069504,,93235,0,,1,N-W/B,,,El Norte&Rose
93244,Ivey Ranch Rd & Justina Dr,33.217208,-117.310384,,93244,0,,1,N-N/B,mlkms,,Ivey Ranch&Justina
93248,Mission Av & Broadway,33.130201,-117.086194,,93248,0,,2,F-W/B,,,Mission&Brdwy
93254,Rancho Santa Fe Rd & 11th St,33.052421,-117.232633,,93254,0,,1,N-S/B,,,Rcho Santa Fe&11th
93255,Rancho Santa Fe Rd & Grandon Av,33.135592,-117.205511,,93255,0,,1,F-N/B,,,Rcho Santa Fe&Grandon
93274,Valley Pkwy & Tulip St,33.117673,-117.093637,,93274,0,,2,N-W/B,,,Vly&Tulip
94063,Del Lago Transit Station,33.072198,-117.070413,,94063,0,,1,M-TC-Bus,lagbrt,,Del Lago Trnst Stn
95000,Rancho Del Oro Dr & Craven Rd,33.226374,-117.318144,,95000,0,,0,,,,Rcho Del Oro & Craven
95035,UTC Transit Center,32.868324,-117.213439,,95035,0,,1,M-TC-Bus,utc,,UTC TC
96011,El Camino Real & Encinitas Bl,33.044819,-117.259413,,96011,0,,2,N-N/B,ecrenc,,El Cmo Real&Encinitas
96023,El Camino Real & Island Way,33.230611,-117.326895,,96023,0,,0,F-W/B,,,El Cmo Real&Island Way
96030,El Camino Real & Encinitas Blvd,33.047423,-117.259778,,96030,0,,2,N-S/B,ecrenc,,El Cmo Real & Encinitasvd
99931,Villa La Jolla Dr & La Jolla Village Dr,32.872489,-117.233946,,99931,0,,1,F-N/B,,,Villa LJ&LJ Vlge
99990,College Bl & El Camino Real,33.142326,-117.283777,,99990,0,,0,,,,Coll&El Cmo Real
99991,Palomar Airport Rd & El Fuerte St,33.129494,-117.251932,,99991,0,,0,,,,Palomar Airport&El Fuerte
cpsta,Carlsbad Poinsettia Station,33.109140,-117.319270,,,1,,,,,,cpsta
cvsta,Carlsbad Village Station,33.160860,-117.350960,,,1,,,,,,cvsta
encsta,Encinitas Station,33.045418,-117.292782,,,1,,,,,,encsta
esctc,Escondido Transit Center,33.118829,-117.090838,,,1,,,,,,esctc
octc,Oceanside Transit Center,33.193669,-117.379713,,,1,,,,,,octc
oldttc,Old Town Transit Center,32.754665,-117.199654,,,1,,,,,,oldttc
palctc,Palomar College Transit Center,33.147810,-117.185820,,,1,,,,,,palctc
pcrtc,Plaza Camino Real Transit Center,33.178276,-117.336525,,,1,,,,,,pcrtc
slrtc,San Luis Rey Transit Center,33.254410,-117.298129,,,1,,,,,,slrtc
solsta,Solana Beach Station,32.992937,-117.271067,,,1,,,,,,solsta
svsta,Sorrento Valley Station,32.902813,-117.225088,,,1,,,,,,svsta
visttc,Vista Transit Center,33.203240,-117.245070,,,1,,,,,,visttc
